{"@id":"https://w3id.org/London%20Places%20for%20LINCS%20(from%20RLO%20and%20MoEML)%20-%20Reconcilation","type":"FeatureCollection","@context":"https://w3id.org/locolligo/contexts/linkedplaces.jsonld","features":[{"@id":"reed:32a6a2ed-7586-4328-bfcc-74fe98054747","type":"Feature","properties":{"title":"Bankside","country":"Great Britain","region":"Surrey"},"geometry":{"type":"Point","coordinates":[-0.095393277,51.50820154]},"types":[{"label":"administrative unit"}]},{"@id":"reed_1fdd3059-1e28-4017-a31f-b6b48e084293","type":"Feature","properties":{"title":"Southwark","country":"Great Britain"},"geometry":{"type":"Point","coordinates":[-0.089720354,51.50607134]},"types":[{"label":"administrative unit"}]},{"@id":"reed:9bed4724-73d6-4021-ae3e-bf9a2a618012","type":"Feature","properties":{"title":"Bear Garden","country":"Great Britain","region":"Southwark"},"geometry":{"type":"Point","coordinates":[-0.096502474,51.50745202]},"types":[{"label":"arena"}]},{"@id":"reed:938eac79-5fc0-4cd1-9e15-b526e14b17b4","type":"Feature","properties":{"title":"Tiltyard at Whitehall Palace","country":"Great Britain","region":"London"},"geometry":{"type":"Point","coordinates":[-0.1283,51.5047]},"types":[{"label":"arena"}]},{"@id":"reed:96dc961a-ad51-4103-8552-bd680acbe592","type":"Feature","properties":{"title":"Conduit upon Cornhill"},"geometry":null,"types":[{"label":"body of water"}]},{"@id":"reed:67c839f9-2ee5-432d-97ab-2cc426c2eab2","type":"Feature","properties":{"title":"Fleet River","country":"Great Britain","region":"London"},"geometry":{"type":"Point","coordinates":[-0.104444,51.510833]},"types":[{"label":"body of water"}]},{"@id":"reed_7fe34a9c-03f9-4ae2-98ab-5523901e1d64","type":"Feature","properties":{"title":"Fleet Street Conduit","country":"Great Britain"},"geometry":null,"types":[{"label":"body of water"}]},{"@id":"reed_7fe34a9c-03f9-4ae2-98ab-5523901e1d64","type":"Feature","properties":{"title":"Fleet Street Conduit","country":"Great Britain"},"geometry":{"type":"Point","coordinates":[-0.106232,51.514203]},"types":[{"label":"body of water"}]},{"@id":"reed:0f09b48b-d731-4d8d-9d24-62d89a976e44","type":"Feature","properties":{"title":"Gracechurch Street Conduit","country":"Great Britain","region":"London"},"geometry":{"type":"Point","coordinates":[-0.084722,51.511944]},"types":[{"label":"body of water"}]},{"@id":"reed:ba1877bb-f860-42f0-9b09-e111ce9ea484","type":"Feature","properties":{"title":"Great Conduit (Cheapside)","country":"Great Britain","region":"London"},"geometry":{"type":"Point","coordinates":[-0.0916,51.5137]},"types":[{"label":"body of water"}]},{"@id":"reed_8b0a8dcd-8f79-4e04-a08f-70e1824c3bbc","type":"Feature","properties":{"title":"Little Conduit (Cheapside)","country":"Great Britain"},"geometry":{"type":"Point","coordinates":[-0.096819,51.514589]},"types":[{"label":"body of water"}]},{"@id":"reed:df008a00-cb44-4373-8870-5e8c0bda39e2","type":"Feature","properties":{"title":"Skinner’s Well","country":"Great Britain","region":"London"},"geometry":null,"types":[{"label":"body of water"}]},{"@id":"reed:3d70535d-3e2d-43a8-8fa7-ed92c9eab859","type":"Feature","properties":{"title":"Thames River","country":"Great Britain","region":"London"},"geometry":null,"types":[{"label":"body of water"}]},{"@id":"reed:46102f75-dbd2-4a36-b583-edad63f3eeca","type":"Feature","properties":{"title":"London Bridge","country":"Great Britain","region":"London"},"geometry":{"type":"Point","coordinates":[-0.08698231,51.50796074]},"types":[{"label":"bridge"}]},{"@id":"reed:5e2b19ee-c320-424a-82a7-60ececeead9c","type":"Feature","properties":{"title":"Cross Keys Inn","country":"Great Britain","region":"Southwark"},"geometry":{"type":"Point","coordinates":[-0.097133094,51.50825323]},"types":[{"label":"brothel"}]},{"@id":"reed:36f046da-433c-47bd-8866-a873295447b2","type":"Feature","properties":{"title":"Rolls Chapel"},"geometry":null,"types":[{"label":"chapel"}]},{"@id":"reed:f01a6ed9-1532-400c-9235-cb83182f8b6b","type":"Feature","properties":{"title":"All Hallows Barking","country":"Great Britain","region":"London"},"geometry":{"type":"Point","coordinates":[-0.079357305,51.50937332]},"types":[{"label":"church"}]},{"@id":"reed:d5827090-12a5-48f0-b91b-d47d6ee8b894","type":"Feature","properties":{"title":"All Hallows Bread Street","country":"Great Britain","region":"London"},"geometry":{"type":"Point","coordinates":[-0.094599819,51.51345911]},"types":[{"label":"church"}]},{"@id":"reed:e295c647-b298-4d47-a463-340a538f9026","type":"Feature","properties":{"title":"All Hallows Gracechurch","country":"Great Britain","region":"London"},"geometry":{"type":"Point","coordinates":[-0.085347368,51.51225425]},"types":[{"label":"church"}]},{"@id":"reed:581caac9-0397-4632-83eb-e2a414a39c2a","type":"Feature","properties":{"title":"All Hallows Honey Lane","country":"Great Britain","region":"London"},"geometry":{"type":"Point","coordinates":[-0.09361622,51.51444301]},"types":[{"label":"church"}]},{"@id":"reed:fad777fa-c842-4a5f-9eee-7f992ab10c90","type":"Feature","properties":{"title":"All Hallows London Wall","country":"Great Britain","region":"London"},"geometry":{"type":"Point","coordinates":[-0.084207145,51.51655489]},"types":[{"label":"church"}]},{"@id":"reed:c6ee5fe8-05ea-4143-90cf-6b1766fc23fb","type":"Feature","properties":{"title":"All Hallows Staining","country":"Great Britain","region":"London"},"geometry":{"type":"Point","coordinates":[-0.080551664,51.51153303]},"types":[{"label":"church"}]},{"@id":"reed:59d2ed19-c754-4388-ba98-8ef63108f550","type":"Feature","properties":{"title":"All Hallows the Great","country":"Great Britain","region":"London"},"geometry":{"type":"Point","coordinates":[-0.090303244,51.51016327]},"types":[{"label":"church"}]},{"@id":"reed:c682a0c0-023d-4e5e-b424-1b93cfa61fa8","type":"Feature","properties":{"title":"All Hallows the Less","country":"Great Britain","region":"London"},"geometry":{"type":"Point","coordinates":[-0.089690617,51.50995032]},"types":[{"label":"church"}]},{"@id":"reed:dfa6da87-1928-491d-8098-7fd5f698b5e1","type":"Feature","properties":{"title":"Christ Church Newgate Street","country":"Great Britain","region":"London"},"geometry":{"type":"Point","coordinates":[-0.099725182,51.51590727]},"types":[{"label":"church"}]},{"@id":"reed:a5d0e303-3a53-40df-859e-fcab5045889b","type":"Feature","properties":{"title":"Holy Trinity Minories","country":"Great Britain","region":"London"},"geometry":{"type":"Point","coordinates":[-0.07449863937,51.51264711]},"types":[{"label":"church"}]},{"@id":"reed:b3ef0857-2132-4f4b-9d2d-eed5f9e7e1c2","type":"Feature","properties":{"title":"Holy Trinity the Less","country":"Great Britain","region":"London"},"geometry":{"type":"Point","coordinates":[-0.094530017,51.51185424]},"types":[{"label":"church"}]},{"@id":"reed:2dc08f1f-094b-44af-9129-144b27a922ff","type":"Feature","properties":{"title":"Queen's Chapel of the Savoy","country":"Great Britain","region":"Savoy"},"geometry":{"type":"Point","coordinates":[-0.119829682,51.51057139]},"types":[{"label":"church"}]},{"@id":"reed:351f9845-730c-4b7d-9018-41a5d4c639c6","type":"Feature","properties":{"title":"St Alban Wood Street","country":"Great Britain","region":"London"},"geometry":{"type":"Point","coordinates":[-0.093961883,51.51659195]},"types":[{"label":"church"}]},{"@id":"reed:3fa68bc1-aae2-4b10-a669-d6dfcce44bd1","type":"Feature","properties":{"title":"St Alphage","country":"Great Britain","region":"London"},"geometry":{"type":"Point","coordinates":[-0.091942762,51.51759913]},"types":[{"label":"church"}]},{"@id":"reed:288ccca3-1b2f-4576-992a-1d631f447b92","type":"Feature","properties":{"title":"St Andrew by the Wardrobe","country":"Great Britain","region":"London"},"geometry":{"type":"Point","coordinates":[-0.10128276,51.51236397]},"types":[{"label":"church"}]},{"@id":"reed:76971129-e634-434f-8091-5c29a4365585","type":"Feature","properties":{"title":"St Andrew Holborn","country":"Great Britain","region":"London"},"geometry":{"type":"Point","coordinates":[-0.106637535,51.517299]},"types":[{"label":"church"}]},{"@id":"reed:092b80de-c122-4239-9932-b589a148d061","type":"Feature","properties":{"title":"St Andrew Hubbard","country":"Great Britain","region":"London"},"geometry":{"type":"Point","coordinates":[-0.084194878,51.51059387]},"types":[{"label":"church"}]},{"@id":"reed:a5cd4592-fc3b-4031-aa4f-93884be5ad15","type":"Feature","properties":{"title":"St Andrew Undershaft","country":"Great Britain","region":"London"},"geometry":{"type":"Point","coordinates":[-0.081311,51.513661]},"types":[{"label":"church"}]},{"@id":"reed:88b18951-e668-4d01-831e-47a2b68471ba","type":"Feature","properties":{"title":"St Ann Blackfriars","country":"Great Britain","region":"London"},"geometry":{"type":"Point","coordinates":[-0.102284916,51.51307327]},"types":[{"label":"church"}]},{"@id":"reed:27ea782d-4d6a-42be-b0c2-d7dd6ddcbeb1","type":"Feature","properties":{"title":"St Anne and St Agnes","country":"Great Britain","region":"London"},"geometry":{"type":"Point","coordinates":[-0.096306065,51.51649991]},"types":[{"label":"church"}]},{"@id":"reed:5d1436e9-016e-43ae-b071-0f0445923910","type":"Feature","properties":{"title":"St Antholin","country":"Great Britain","region":"London"},"geometry":{"type":"Point","coordinates":[-0.092184203,51.51260297]},"types":[{"label":"church"}]},{"@id":"reed:caeb99cc-7b83-45d0-9e9b-49be21ee16ee","type":"Feature","properties":{"title":"St Augustine by St Paul’s","country":"Great Britain","region":"London"},"geometry":{"type":"Point","coordinates":[-0.096871442,51.51352402]},"types":[{"label":"church"}]},{"@id":"reed:bcb66351-53f4-4940-9ab0-982d5446a692","type":"Feature","properties":{"title":"St Bartholomew by the Exchange","country":"Great Britain","region":"London"},"geometry":{"type":"Point","coordinates":[-0.087228412,51.51413623]},"types":[{"label":"church"}]},{"@id":"reed:094db2e2-dcd6-4217-be38-7f2a30dc5415","type":"Feature","properties":{"title":"St Bartholomew the Great","country":"Great Britain","region":"London"},"geometry":{"type":"Point","coordinates":[-0.099644273,51.51886787]},"types":[{"label":"church"}]},{"@id":"reed:7bf07b57-5e78-4f9d-8b25-4a126a8bec22","type":"Feature","properties":{"title":"St Bartholomew the Less","country":"Great Britain","region":"Middlesex"},"geometry":{"type":"Point","coordinates":[-0.100657128,51.5179411]},"types":[{"label":"church"}]},{"@id":"reed:67589cb1-bbe0-4f64-a074-a1bea9689940","type":"Feature","properties":{"title":"St Benet Fink","country":"Great Britain","region":"London"},"geometry":{"type":"Point","coordinates":[-0.086375897,51.51391239]},"types":[{"label":"church"}]},{"@id":"reed:56b051c2-241c-4cfd-99c5-753cc9834739","type":"Feature","properties":{"title":"St Benet Gracechurch","country":"Great Britain","region":"London"},"geometry":{"type":"Point","coordinates":[-0.08505247,51.51172532]},"types":[{"label":"church"}]},{"@id":"reed:88d940a6-821e-4489-a48b-f44e721279c1","type":"Feature","properties":{"title":"St Benet Paul’s Wharf","country":"Great Britain","region":"London"},"geometry":{"type":"Point","coordinates":[-0.099234702,51.51170493]},"types":[{"label":"church"}]},{"@id":"reed:cf89b5c9-1aab-4e43-a874-552ae9b7e972","type":"Feature","properties":{"title":"St Benet Sherehog","country":"Great Britain","region":"London"},"geometry":{"type":"Point","coordinates":[-0.091464048,51.51324786]},"types":[{"label":"church"}]},{"@id":"reed:39de97b3-b5b2-42a4-8248-ba969b413f15","type":"Feature","properties":{"title":"St Botolph Billingsgate","country":"Great Britain","region":"London"},"geometry":{"type":"Point","coordinates":[-0.085160998,51.50922588]},"types":[{"label":"church"}]},{"@id":"reed:93914a35-522b-4ff3-a7e3-bd80982b8331","type":"Feature","properties":{"title":"St Botolph without Aldersgate","country":"Great Britain","region":"London"},"geometry":{"type":"Point","coordinates":[-0.097123767,51.51698453]},"types":[{"label":"church"}]},{"@id":"reed:597ea751-bf3f-46a2-a1f6-a4d49b1ea346","type":"Feature","properties":{"title":"St Botolph Without Aldgate","country":"Great Britain","region":"London"},"geometry":{"type":"Point","coordinates":[-0.076446729,51.51405092]},"types":[{"label":"church"}]},{"@id":"reed:9618bad2-f4eb-4028-99ee-f8effc9c6115","type":"Feature","properties":{"title":"St Botolph without Bishopsgate","country":"Great Britain","region":"London"},"geometry":{"type":"Point","coordinates":[-0.081676125,51.51669949]},"types":[{"label":"church"}]},{"@id":"reed:341fd75e-2e93-44c0-b5d0-e9ed335d343c","type":"Feature","properties":{"title":"St Bride Fleet Street","country":"Great Britain","region":"London"},"geometry":{"type":"Point","coordinates":[-0.105392033,51.51380528]},"types":[{"label":"church"}]},{"@id":"reed:5928cc1c-1e97-48f1-b885-9e43d1c356cf","type":"Feature","properties":{"title":"St Christopher le Stocks","country":"Great Britain","region":"London"},"geometry":{"type":"Point","coordinates":[-0.088592589,51.51370978]},"types":[{"label":"church"}]},{"@id":"reed:8149d52b-8734-4684-9cb1-147f4e3f8ce3","type":"Feature","properties":{"title":"St Clement Danes","country":"Great Britain","region":"Savoy"},"geometry":{"type":"Point","coordinates":[-0.113877882,51.51311115]},"types":[{"label":"church"}]},{"@id":"reed:80521e9b-2b42-4c40-8457-be644dd019a6","type":"Feature","properties":{"title":"St Clement Eastcheap","country":"Great Britain","region":"London"},"geometry":{"type":"Point","coordinates":[-0.086701229,51.5113161]},"types":[{"label":"church"}]},{"@id":"reed:116ce8ed-7b85-4dfb-8c13-0ce42e4fc3a5","type":"Feature","properties":{"title":"St Dionis Backchurch","country":"Great Britain","region":"London"},"geometry":{"type":"Point","coordinates":[-0.083934237,51.51173394]},"types":[{"label":"church"}]},{"@id":"reed:a79d8814-eb90-4fd4-8139-6974dacf52cf","type":"Feature","properties":{"title":"St Dunstan and All Saints","country":"Great Britain","region":"Middlesex"},"geometry":{"type":"Point","coordinates":[-0.041670152,51.51682913]},"types":[{"label":"church"}]},{"@id":"reed:3831c814-9d71-4467-ba65-1e158e678dcc","type":"Feature","properties":{"title":"St Dunstan in the East","country":"Great Britain","region":"London"},"geometry":{"type":"Point","coordinates":[-0.082559072,51.50966107]},"types":[{"label":"church"}]},{"@id":"reed:0f0ef4c2-5cfb-4c4a-bd69-9fd43a4e97ee","type":"Feature","properties":{"title":"St Dunstan in the West","country":"Great Britain","region":"London"},"geometry":{"type":"Point","coordinates":[-0.110652277,51.51417239]},"types":[{"label":"church"}]},{"@id":"reed:50bbc9be-5783-4360-bde3-b4ff90bceb46","type":"Feature","properties":{"title":"St Edmund the King and Martyr","country":"Great Britain","region":"London"},"geometry":{"type":"Point","coordinates":[-0.086276321,51.51244788]},"types":[{"label":"church"}]},{"@id":"reed:d8273ffb-b272-4d51-a0b6-ea5ed18fc57a","type":"Feature","properties":{"title":"St Ethelburga within Bishopsgate","country":"Great Britain","region":"London"},"geometry":{"type":"Point","coordinates":[-0.08190223,51.51544381]},"types":[{"label":"church"}]},{"@id":"reed:69c46aee-2ee8-4643-8f98-2fddd9e4bb37","type":"Feature","properties":{"title":"St Ewen within Newgate","country":"Great Britain","region":"London"},"geometry":{"type":"Point","coordinates":[-0.100423133,51.51571006]},"types":[{"label":"church"}]},{"@id":"reed:23924a84-a351-40e5-9b46-c42ae44826fc","type":"Feature","properties":{"title":"St Faith under St Paul’s","country":"Great Britain","region":"London"},"geometry":{"type":"Point","coordinates":[-0.098020191,51.51375009]},"types":[{"label":"church"}]},{"@id":"reed:0517fa86-e1c2-4f4c-a8d3-98c54c5e0e71","type":"Feature","properties":{"title":"St Gabriel Fenchurch","country":"Great Britain","region":"London"},"geometry":{"type":"Point","coordinates":[-0.082528815,51.51166357]},"types":[{"label":"church"}]},{"@id":"reed:5049fa7b-5874-4e6e-a5ce-286b515b5f46","type":"Feature","properties":{"title":"St George Eastcheap","country":"Great Britain","region":"London"},"geometry":{"type":"Point","coordinates":[-0.084820661,51.51018873]},"types":[{"label":"church"}]},{"@id":"reed:f7887638-5175-43c6-9a21-0f151bc77dfd","type":"Feature","properties":{"title":"St George the Martyr","country":"Great Britain","region":"Southwark"},"geometry":{"type":"Point","coordinates":[-0.09251849,51.50135144]},"types":[{"label":"church"}]},{"@id":"reed:f3bfebbd-63a0-4b8e-bebf-dbaa7a9c8069","type":"Feature","properties":{"title":"St Giles in the Fields","country":"Great Britain","region":"London"},"geometry":{"type":"Point","coordinates":[-0.128418452,51.5153272]},"types":[{"label":"church"}]},{"@id":"reed:b7ca2955-4dcc-40b7-a940-5e8b009e6e65","type":"Feature","properties":{"title":"St Giles without Cripplegate","country":"Great Britain","region":"London"},"geometry":{"type":"Point","coordinates":[-0.093854728,51.51869968]},"types":[{"label":"church"}]},{"@id":"reed:2736de0c-6724-4ce0-a5d2-c3e45331e8d0","type":"Feature","properties":{"title":"St Gregory by St Paul’s","country":"Great Britain","region":"London"},"geometry":{"type":"Point","coordinates":[-0.099683664,51.51355462]},"types":[{"label":"church"}]},{"@id":"reed:53fd70f8-612b-4e3c-868d-47c7f1dd6ffe","type":"Feature","properties":{"title":"St Helen","country":"Great Britain","region":"London"},"geometry":{"type":"Point","coordinates":[-0.081871496,51.51476106]},"types":[{"label":"church"}]},{"@id":"reed:bacde12c-20f6-4a37-915c-cc17c9f9a77a","type":"Feature","properties":{"title":"St James Duke’s Place","country":"Great Britain","region":"London"},"geometry":{"type":"Point","coordinates":[-0.07884,51.51265]},"types":[{"label":"church"}]},{"@id":"reed:13717b6f-b783-42dc-b002-abb9632e8972","type":"Feature","properties":{"title":"St James Garlickhithe","country":"Great Britain","region":"London"},"geometry":{"type":"Point","coordinates":[-0.093838384,51.51114029]},"types":[{"label":"church"}]},{"@id":"reed:355fef3c-251a-46bc-b2e1-85b174bf1e59","type":"Feature","properties":{"title":"St James, Clerkenwell","country":"Great Britain","region":"London"},"geometry":{"type":"Point","coordinates":[-0.105731965,51.52354572]},"types":[{"label":"church"}]},{"@id":"reed:c253f3ad-f461-4e83-a8a4-613b4c3a26bd","type":"Feature","properties":{"title":"St John the Baptist","country":"Great Britain","region":"London"},"geometry":{"type":"Point","coordinates":[-0.091005738,51.51160979]},"types":[{"label":"church"}]},{"@id":"reed:d1b12f9f-7ae0-48c4-93c1-248c72f8d6c9","type":"Feature","properties":{"title":"St John the Baptist's Priory, Holywell","country":"Great Britain","region":"Middlesex"},"geometry":{"type":"Point","coordinates":[-0.079344115,51.52420344]},"types":[{"label":"church"}]},{"@id":"reed:9f0129d3-9e41-42b2-97fa-e44bc58a0961","type":"Feature","properties":{"title":"St John the Evangelist Friday Street","country":"Great Britain","region":"London"},"geometry":{"type":"Point","coordinates":[-0.095578074,51.5132389]},"types":[{"label":"church"}]},{"@id":"reed:7c911abf-9906-4128-8489-d3964873093f","type":"Feature","properties":{"title":"St John Zachary","country":"Great Britain","region":"London"},"geometry":{"type":"Point","coordinates":[-0.09585418,51.51606361]},"types":[{"label":"church"}]},{"@id":"reed:992ea2f7-e2b0-42ab-9c4a-fcfc1cb4a92a","type":"Feature","properties":{"title":"St Katharine Coleman","country":"Great Britain","region":"London"},"geometry":{"type":"Point","coordinates":[-0.079032933,51.51231494]},"types":[{"label":"church"}]},{"@id":"reed:8e960002-7e2d-4157-980a-55d8aaec3d63","type":"Feature","properties":{"title":"St Katharine Cree","country":"Great Britain","region":"London"},"geometry":{"type":"Point","coordinates":[-0.078916755,51.51343326]},"types":[{"label":"church"}]},{"@id":"reed:59169837-746a-43ca-8504-0f022a57c103","type":"Feature","properties":{"title":"St Katherine by the Tower","country":"Great Britain","region":"London"},"geometry":{"type":"Point","coordinates":[-0.072214422,51.50676127]},"types":[{"label":"church"}]},{"@id":"reed:9452d747-3fe0-40ed-9926-19e5d7f6630c","type":"Feature","properties":{"title":"St Lawrence Jewry","country":"Great Britain","region":"London"},"geometry":{"type":"Point","coordinates":[-0.092440306,51.51536629]},"types":[{"label":"church"}]},{"@id":"reed:3ffd84a8-e676-4340-9e2e-b48be8aaf9ec","type":"Feature","properties":{"title":"St Lawrence Pountney","country":"Great Britain","region":"London"},"geometry":{"type":"Point","coordinates":[-0.088592249,51.51063287]},"types":[{"label":"church"}]},{"@id":"reed:3b1b907f-23ca-4e88-99b8-fe20e135fe87","type":"Feature","properties":{"title":"St Leonard Eastcheap","country":"Great Britain","region":"London"},"geometry":{"type":"Point","coordinates":[-0.085718046,51.51060054]},"types":[{"label":"church"}]},{"@id":"reed:0e292b37-6d44-42ed-9dc4-e29ae8d43efe","type":"Feature","properties":{"title":"St Leonard Foster Lane","country":"Great Britain","region":"London"},"geometry":{"type":"Point","coordinates":[-0.096580057,51.51516083]},"types":[{"label":"church"}]},{"@id":"reed:eb63a2f6-ed0e-40bc-97e1-7683c378d082","type":"Feature","properties":{"title":"St Leonard, Shoreditch","country":"Great Britain","region":"London"},"geometry":{"type":"Point","coordinates":[-0.078917826,51.52685991]},"types":[{"label":"church"}]},{"@id":"reed:ebb406aa-1629-4922-9962-5e916882f3f2","type":"Feature","properties":{"title":"St Magnus the Martyr","country":"Great Britain","region":"London"},"geometry":{"type":"Point","coordinates":[-0.086217251,51.50933622]},"types":[{"label":"church"}]},{"@id":"reed:ae67e5f8-e136-4012-9cd8-e87e23b20e60","type":"Feature","properties":{"title":"St Margaret","country":"Great Britain","region":"Westminster"},"geometry":{"type":"Point","coordinates":[-0.12680368,51.49988058]},"types":[{"label":"church"}]},{"@id":"reed:196ff51c-7101-4c66-a91b-eae9e41c983b","type":"Feature","properties":{"title":"St Margaret Fish Street Hill","country":"Great Britain","region":"London"},"geometry":{"type":"Point","coordinates":[-0.085829588,51.51008795]},"types":[{"label":"church"}]},{"@id":"reed:728681c6-58ea-441a-9bd6-b71208cc9f65","type":"Feature","properties":{"title":"St Margaret Moses","country":"Great Britain","region":"London"},"geometry":{"type":"Point","coordinates":[-0.095685539,51.51270735]},"types":[{"label":"church"}]},{"@id":"reed:1e663018-6308-4169-9701-6c21994d48e5","type":"Feature","properties":{"title":"St Margaret Pattens","country":"Great Britain","region":"London"},"geometry":{"type":"Point","coordinates":[-0.082968156,51.51078992]},"types":[{"label":"church"}]},{"@id":"reed:4bb7a91a-c385-4d96-9dd8-67de65a83884","type":"Feature","properties":{"title":"St Martin in the Fields","country":"Great Britain","region":"Westminster"},"geometry":{"type":"Point","coordinates":[-0.126541618,51.508818]},"types":[{"label":"church"}]},{"@id":"reed:884f437d-8c6c-45e1-a3c6-4a7e35a5d4c8","type":"Feature","properties":{"title":"St Martin Ludgate","country":"Great Britain","region":"London"},"geometry":{"type":"Point","coordinates":[-0.101933842,51.51412001]},"types":[{"label":"church"}]},{"@id":"reed:b84245e6-7f68-4775-9eab-3da5b92c0e8d","type":"Feature","properties":{"title":"St Martin Orgar","country":"Great Britain","region":"London"},"geometry":{"type":"Point","coordinates":[-0.08750557814,51.51079039]},"types":[{"label":"church"}]},{"@id":"reed:be9056ef-796a-466e-83c3-8bdb386f8e67","type":"Feature","properties":{"title":"St Martin Outwich","country":"Great Britain","region":"London"},"geometry":{"type":"Point","coordinates":[-0.084071047,51.51428167]},"types":[{"label":"church"}]},{"@id":"reed:28bbf177-461e-4da7-8856-b6911d7cfe2e","type":"Feature","properties":{"title":"St Martin Pomary","country":"Great Britain","region":"London"},"geometry":{"type":"Point","coordinates":[-0.09161129,51.51447905]},"types":[{"label":"church"}]},{"@id":"reed:584fd5c2-1fbd-4289-bc5e-015370c8b273","type":"Feature","properties":{"title":"St Martin Vintry","country":"Great Britain","region":"London"},"geometry":{"type":"Point","coordinates":[-0.092952872,51.51089135]},"types":[{"label":"church"}]},{"@id":"reed:19dddde0-cdb9-4908-bf5c-e93beb16d1ca","type":"Feature","properties":{"title":"St Mary Abchurch","country":"Great Britain","region":"London"},"geometry":{"type":"Point","coordinates":[-0.08835683,51.51166869]},"types":[{"label":"church"}]},{"@id":"reed:bccf49e2-af0f-4ea6-a70b-8bec686b3113","type":"Feature","properties":{"title":"St Mary Aldermanbury","country":"Great Britain","region":"London"},"geometry":{"type":"Point","coordinates":[-0.093343748,51.51274276]},"types":[{"label":"church"}]},{"@id":"reed:944d7899-668e-4ed7-9307-4bf603139149","type":"Feature","properties":{"title":"St Mary Aldermary","country":"Great Britain","region":"London"},"geometry":{"type":"Point","coordinates":[-0.093333,51.5128]},"types":[{"label":"church"}]},{"@id":"reed:5f513104-a242-432f-bfec-2580f2c5978c","type":"Feature","properties":{"title":"St Mary at Hill","country":"Great Britain","region":"London"},"geometry":{"type":"Point","coordinates":[-0.083734103,51.5101049]},"types":[{"label":"church"}]},{"@id":"reed:a9cbe3dc-43e6-4e73-90de-cc0aad243c37","type":"Feature","properties":{"title":"St Mary Axe","country":"Great Britain","region":"London"},"geometry":{"type":"Point","coordinates":[-0.080499276,51.51521476]},"types":[{"label":"church"}]},{"@id":"reed:bc1d7be1-c23d-4037-8c2b-c215fdd6742e","type":"Feature","properties":{"title":"St Mary Bothaw","country":"Great Britain","region":"London"},"geometry":{"type":"Point","coordinates":[-0.090203548,51.51136317]},"types":[{"label":"church"}]},{"@id":"reed:a3e8d2f0-aa15-42db-8a4e-c11f0d3c71c8","type":"Feature","properties":{"title":"St Mary Colechurch","country":"Great Britain","region":"London"},"geometry":{"type":"Point","coordinates":[-0.091384104,51.51377132]},"types":[{"label":"church"}]},{"@id":"reed:414327fb-ed5e-464d-8572-5f69d2075802","type":"Feature","properties":{"title":"St Mary Lambeth","country":"Great Britain","region":"Lambeth"},"geometry":{"type":"Point","coordinates":[-0.120156743,51.4949646]},"types":[{"label":"church"}]},{"@id":"reed:c11f5fbb-09a9-4ab3-8722-63965c24a979","type":"Feature","properties":{"title":"St Mary le Bow","country":"Great Britain","region":"London"},"geometry":{"type":"Point","coordinates":[-0.093573,51.51371]},"types":[{"label":"church"}]},{"@id":"reed:c45bc335-6d8c-4695-94cc-d0f90aeb3bb5","type":"Feature","properties":{"title":"St Mary Magdalen Bermondsey","country":"Great Britain","region":"Southwark"},"geometry":{"type":"Point","coordinates":[-0.08085456,51.49840483]},"types":[{"label":"church"}]},{"@id":"reed:a158cddc-2b2e-4e53-8d1e-7b1d755ac08a","type":"Feature","properties":{"title":"St Mary Magdalen in the Fishmarket","country":"Great Britain","region":"London"},"geometry":{"type":"Point","coordinates":[-0.097540178,51.5124141]},"types":[{"label":"church"}]},{"@id":"reed:5cfe2575-1111-41e3-bdcc-bcc527e01e49","type":"Feature","properties":{"title":"St Mary Magdalen Milk Street","country":"Great Britain","region":"London"},"geometry":{"type":"Point","coordinates":[-0.093971647,51.51448459]},"types":[{"label":"church"}]},{"@id":"reed:388147ec-f032-4a10-af35-da0853f9b47d","type":"Feature","properties":{"title":"St Mary Mounthaw","country":"Great Britain","region":"London"},"geometry":{"type":"Point","coordinates":[-0.09697001,51.51174181]},"types":[{"label":"church"}]},{"@id":"reed:092b01b1-39e2-491d-a1de-469a72edd876","type":"Feature","properties":{"title":"St Mary Somerset","country":"Great Britain","region":"London"},"geometry":{"type":"Point","coordinates":[-0.096598509,51.51140514]},"types":[{"label":"church"}]},{"@id":"reed:6a2f16ed-8727-494b-afb4-226243623503","type":"Feature","properties":{"title":"St Mary Staining","country":"Great Britain","region":"London"},"geometry":{"type":"Point","coordinates":[-0.094971016,51.51665597]},"types":[{"label":"church"}]},{"@id":"reed:8c0fedf8-8621-4486-9c9e-e8fe1114b5b9","type":"Feature","properties":{"title":"St Mary Whitechapel","country":"Great Britain","region":"Middlesex"},"geometry":{"type":"Point","coordinates":[-0.068651814,51.51627308]},"types":[{"label":"church"}]},{"@id":"reed:0d81e475-7ed0-4368-a0e1-acb34bf5401f","type":"Feature","properties":{"title":"St Mary Woolchurch","country":"Great Britain","region":"London"},"geometry":{"type":"Point","coordinates":[-0.089370869,51.51323381]},"types":[{"label":"church"}]},{"@id":"reed:b64cabda-f185-44a5-be46-0d8d4740b013","type":"Feature","properties":{"title":"St Mary Woolnoth","country":"Great Britain","region":"London"},"geometry":{"type":"Point","coordinates":[-0.088161607,51.5127625]},"types":[{"label":"church"}]},{"@id":"reed:14b7e7fd-6af0-4f1a-a3ee-c51698ae7ffa","type":"Feature","properties":{"title":"St Matthew Friday Street","country":"Great Britain","region":"London"},"geometry":{"type":"Point","coordinates":[-0.095550489,51.51400901]},"types":[{"label":"church"}]},{"@id":"reed:80136821-d119-448a-ab68-117b69b2c1f3","type":"Feature","properties":{"title":"St Michael Bassishaw","country":"Great Britain","region":"London"},"geometry":{"type":"Point","coordinates":[-0.091827322,51.51654583]},"types":[{"label":"church"}]},{"@id":"reed:c853cd1f-6de0-4c37-9096-0c421ee48dee","type":"Feature","properties":{"title":"St Michael Cornhill","country":"Great Britain","region":"London"},"geometry":{"type":"Point","coordinates":[-0.085573324,51.51316558]},"types":[{"label":"church"}]},{"@id":"reed:01652e94-871a-4dba-ad2e-8e20c0f30043","type":"Feature","properties":{"title":"St Michael Crooked Lane","country":"Great Britain","region":"London"},"geometry":{"type":"Point","coordinates":[-0.086901283,51.51055634]},"types":[{"label":"church"}]},{"@id":"reed:74e746be-746c-4b98-851e-4be0c58e05ce","type":"Feature","properties":{"title":"St Michael le Querne","country":"Great Britain","region":"London"},"geometry":{"type":"Point","coordinates":[-0.097047443,51.51472311]},"types":[{"label":"church"}]},{"@id":"reed:f841bfd5-c555-499b-b3c4-e3bf743c70a9","type":"Feature","properties":{"title":"St Michael Paternoster Royal","country":"Great Britain","region":"London"},"geometry":{"type":"Point","coordinates":[-0.092256907,51.51117644]},"types":[{"label":"church"}]},{"@id":"reed:3443aa30-8ca2-49bd-a2db-56ff669db02b","type":"Feature","properties":{"title":"St Michael Queenhithe","country":"Great Britain","region":"London"},"geometry":{"type":"Point","coordinates":[-0.095015575,51.5111879]},"types":[{"label":"church"}]},{"@id":"reed:87827ce3-93e1-4466-978c-538d20e3e3da","type":"Feature","properties":{"title":"St Michael Wood Street","country":"Great Britain","region":"London"},"geometry":{"type":"Point","coordinates":[-0.094732071,51.51565612]},"types":[{"label":"church"}]},{"@id":"reed:a23d7994-d592-41ee-80aa-ad725aac13fb","type":"Feature","properties":{"title":"St Mildred Bread Street","country":"Great Britain","region":"London"},"geometry":{"type":"Point","coordinates":[-0.095099277,51.51245147]},"types":[{"label":"church"}]},{"@id":"reed:e17b203b-1db0-4e57-a8b3-241d44313211","type":"Feature","properties":{"title":"St Mildred Walbrook","country":"Great Britain","region":"London"},"geometry":{"type":"Point","coordinates":[-0.089958912,51.51352668]},"types":[{"label":"church"}]},{"@id":"reed:3c6e670b-c75c-49be-83b0-a6c40f0d00e8","type":"Feature","properties":{"title":"St Nicholas Acon","country":"Great Britain","region":"London"},"geometry":{"type":"Point","coordinates":[-0.08737872,51.51214344]},"types":[{"label":"church"}]},{"@id":"reed:5ca60dcc-0d77-4b30-9394-f5b1011861ee","type":"Feature","properties":{"title":"St Nicholas Cole Abbey","country":"Great Britain","region":"London"},"geometry":{"type":"Point","coordinates":[-0.097038547,51.51206938]},"types":[{"label":"church"}]},{"@id":"reed:9c495bee-7d48-4ff8-b51d-b48269268ba0","type":"Feature","properties":{"title":"St Nicholas Olave","country":"Great Britain","region":"London"},"geometry":{"type":"Point","coordinates":[-0.095894989,51.51189152]},"types":[{"label":"church"}]},{"@id":"reed:a8074800-9065-409c-8733-d77cfdd173e3","type":"Feature","properties":{"title":"St Nicholas Shambles","country":"Great Britain","region":"London"},"geometry":{"type":"Point","coordinates":[-0.09863022,51.51546049]},"types":[{"label":"church"}]},{"@id":"reed:8c5a96d3-af97-4fa3-b0ac-64a514d06f2d","type":"Feature","properties":{"title":"St Olave","country":"Great Britain","region":"Southwark"},"geometry":{"type":"Point","coordinates":[-0.086715149,51.50627883]},"types":[{"label":"church"}]},{"@id":"reed:2d4eb4fb-a9fc-478c-ac04-79befe682b36","type":"Feature","properties":{"title":"St Olave Monkwell Street","country":"Great Britain","region":"London"},"geometry":{"type":"Point","coordinates":[-0.095147456,51.5172442]},"types":[{"label":"church"}]},{"@id":"reed:b1f151e0-a186-468c-85f4-fd1df927c872","type":"Feature","properties":{"title":"St Olave Old Jewry","country":"Great Britain","region":"London"},"geometry":{"type":"Point","coordinates":[-0.091149471,51.51442206]},"types":[{"label":"church"}]},{"@id":"reed:597b85ef-b501-4658-be46-37c2c70a8982","type":"Feature","properties":{"title":"St Olave towards the Tower","country":"Great Britain","region":"London"},"geometry":{"type":"Point","coordinates":[-0.079447698,51.51088603]},"types":[{"label":"church"}]},{"@id":"reed:37e005a1-a14b-4890-97f8-4c198efbcb6f","type":"Feature","properties":{"title":"St Pancras","country":"Great Britain","region":"London"},"geometry":{"type":"Point","coordinates":[-0.092013865,51.51325966]},"types":[{"label":"church"}]},{"@id":"reed:c35a2b6f-f4db-4635-9ec2-a9907c90c982","type":"Feature","properties":{"title":"St Paul’s Cathedral","country":"Great Britain","region":"London"},"geometry":{"type":"Point","coordinates":[-0.098771581,51.51374136]},"types":[{"label":"church"}]},{"@id":"reed:9d39d660-6b2f-4f5d-943c-2624b3c64064","type":"Feature","properties":{"title":"St Peter Cornhill","country":"Great Britain","region":"London"},"geometry":{"type":"Point","coordinates":[-0.084476707,51.51320751]},"types":[{"label":"church"}]},{"@id":"reed:17ac59b8-4426-4462-9ed2-633c68e0f1dc","type":"Feature","properties":{"title":"St Peter Paul’s Wharf Street","country":"Great Britain","region":"London"},"geometry":{"type":"Point","coordinates":[-0.098528608,51.51162842]},"types":[{"label":"church"}]},{"@id":"reed:70b93593-407e-4920-b41d-92ea97931e39","type":"Feature","properties":{"title":"St Peter the Poor","country":"Great Britain","region":"London"},"geometry":{"type":"Point","coordinates":[-0.084942735,51.51520051]},"types":[{"label":"church"}]},{"@id":"reed:2668903d-20fb-42ca-b47c-2e8babf91978","type":"Feature","properties":{"title":"St Peter Westcheap","country":"Great Britain","region":"London"},"geometry":{"type":"Point","coordinates":[-0.094866147,51.51444209]},"types":[{"label":"church"}]},{"@id":"reed:cd071734-2364-4276-8266-22e9b90e3bf6","type":"Feature","properties":{"title":"St Saviour’s, Southwark","country":"Great Britain","region":"Southwark"},"geometry":{"type":"Point","coordinates":[-0.089720354,51.50607134]},"types":[{"label":"church"}]},{"@id":"reed:d3df6de4-e188-415f-8785-65e2691742b5","type":"Feature","properties":{"title":"St Sepulchre without Newgate","country":"Great Britain","region":"London"},"geometry":{"type":"Point","coordinates":[-0.102231066,51.51669776]},"types":[{"label":"church"}]},{"@id":"reed:46035c58-d341-44c4-82d6-b98727692e9c","type":"Feature","properties":{"title":"St Stephen Coleman Street","country":"Great Britain","region":"London"},"geometry":{"type":"Point","coordinates":[-0.090415645,51.51545849]},"types":[{"label":"church"}]},{"@id":"reed:b82cd593-dd58-487b-a064-ad76968e3cc9","type":"Feature","properties":{"title":"St Stephen Walbrook","country":"Great Britain","region":"London"},"geometry":{"type":"Point","coordinates":[-0.089894529,51.5126066]},"types":[{"label":"church"}]},{"@id":"reed:c9feae1c-a0e3-4122-b212-371bb107c5dc","type":"Feature","properties":{"title":"St Swithin London Stone","country":"Great Britain","region":"London"},"geometry":{"type":"Point","coordinates":[-0.089488775,51.51161205]},"types":[{"label":"church"}]},{"@id":"reed:648b9e60-824d-4cdb-b89b-0f4092cf2925","type":"Feature","properties":{"title":"St Thomas the Apostle","country":"Great Britain","region":"London"},"geometry":{"type":"Point","coordinates":[-0.092970842,51.51195789]},"types":[{"label":"church"}]},{"@id":"reed:15c5d68d-b60c-4a6e-824f-8a132e9a9ea6","type":"Feature","properties":{"title":"St Vedast Foster Lane","country":"Great Britain","region":"London"},"geometry":{"type":"Point","coordinates":[-0.096157252,51.51489751]},"types":[{"label":"church"}]},{"@id":"reed:ccea1615-c786-43bb-987c-3c687059446e","type":"Feature","properties":{"title":"Temple Church","country":"Great Britain","region":"London"},"geometry":{"type":"Point","coordinates":[-0.11024898,51.51325955]},"types":[{"label":"church"}]},{"@id":"reed:5dc0127a-7f4d-458c-b02f-f8928bd66de6","type":"Feature","properties":{"title":"Westminster Abbey","country":"Great Britain","region":"Westminster"},"geometry":{"type":"Point","coordinates":[-0.127455759,51.49934803]},"types":[{"label":"church"}]},{"@id":"reed:ae8443f1-ac39-4325-ae95-5e0b0faed431","type":"Feature","properties":{"title":"Middlesex","country":"Great Britain","region":"Middlesex"},"geometry":{"type":"Point","coordinates":[-0.1019451176,51.51780228]},"types":[{"label":"county"}]},{"@id":"reed:11d99fa8-db9f-40ad-9366-074cced322f2","type":"Feature","properties":{"title":"Whitechapel","country":"Great Britain","region":"London"},"geometry":{"type":"Point","coordinates":[-0.075144824,51.51410636]},"types":[{"label":"district"}]},{"@id":"reed:2b2ce6e2-543b-4a4d-91a6-58791ec95d82","type":"Feature","properties":{"title":"Tower of London","country":"Great Britain","region":"London"},"geometry":{"type":"Point","coordinates":[-0.076071261,51.50801696]},"types":[{"label":"functional place"}]},{"@id":"reed:e7491654-16bd-4d6d-97cf-960cbe515bf1","type":"Feature","properties":{"title":"Aldersgate","country":"Great Britain","region":"London"},"geometry":{"type":"Point","coordinates":[-0.096866866,51.51669127]},"types":[{"label":"gate"}]},{"@id":"reed:8cc43baa-723b-4576-98ef-1470b909a4f9","type":"Feature","properties":{"title":"Aldgate","country":"Great Britain","region":"London"},"geometry":{"type":"Point","coordinates":[-0.07664669,51.513571]},"types":[{"label":"gate"}]},{"@id":"reed:c24a87ea-74e8-4ec7-8d81-a8d781078c4e ","type":"Feature","properties":{"title":"Bishopsgate","country":"Great Britain","region":"London"},"geometry":{"type":"Point","coordinates":[-0.081492755,51.51635072]},"types":[{"label":"gate"}]},{"@id":"reed:37e01026-97e8-473e-8eaf-306acf41b4c3","type":"Feature","properties":{"title":"Cripplegate","country":"Great Britain","region":"London"},"geometry":{"type":"Point","coordinates":[-0.093242618,51.51824597]},"types":[{"label":"gate"}]},{"@id":"reed:2b5b5695-d1d7-4a61-a25c-c4336c5c8ab6","type":"Feature","properties":{"title":"Ludgate","country":"Great Britain","region":"London"},"geometry":{"type":"Point","coordinates":[-0.102151928,51.5139485]},"types":[{"label":"gate"}]},{"@id":"reed:c60e9efc-1937-4e3c-b42c-2c42b8c5bb4a","type":"Feature","properties":{"title":"Moorgate","country":"Great Britain","region":"London"},"geometry":{"type":"Point","coordinates":[-0.088761663,51.51740217]},"types":[{"label":"gate"}]},{"@id":"reed:d9e9d0b0-7f25-44b8-ae3e-f9c75bfbda87","type":"Feature","properties":{"title":"Newgate","country":"Great Britain","region":"London"},"geometry":{"type":"Point","coordinates":[-0.101573476,51.51613101]},"types":[{"label":"gate"}]},{"@id":"reed:3Afec3a1e3-a2e7-4ab9-9842-ffe48903183a","type":"Feature","properties":{"title":"Temple Bar","country":"Great Britain","region":"London"},"geometry":{"type":"Point","coordinates":[-0.09955,51.5143]},"types":[{"label":"gate"}]},{"@id":"https://w3id.org/London%20Places%20for%20LINCS%20(from%20RLO%20and%20MoEML)%20-%20Reconcilation/519fdaa1-d144-47aa-8962-752759967750","type":"Feature","properties":{"title":"Armourers' Hall"},"geometry":null,"types":[{"label":"hall"}]},{"@id":"reed:60d609fd-a695-4ee1-a987-ad3f73082887","type":"Feature","properties":{"title":"Bakers' Hall","country":"Great Britain","region":"London"},"geometry":{"type":"Point","coordinates":[-0.081616744,51.50970094]},"types":[{"label":"hall"}]},{"@id":"reed:77ab9e87-b784-4f84-be23-99b22e610551","type":"Feature","properties":{"title":"Banqueting House","country":"Great Britain","region":"London"},"geometry":{"type":"Point","coordinates":[-0.12593,51.50456]},"types":[{"label":"hall"}]},{"@id":"reed:27cd24f7-6285-40e1-ba04-693cfb3ac0c9","type":"Feature","properties":{"title":"Blacksmiths' Hall","country":"Great Britain","region":"London"},"geometry":{"type":"Point","coordinates":[-0.09794768798,51.51162479]},"types":[{"label":"hall"}]},{"@id":"reed:93a9bad5-f383-4fa7-b585-10ae9a325494","type":"Feature","properties":{"title":"Drapers' Hall","country":"Great Britain","region":"London"},"geometry":{"type":"Point","coordinates":[-0.086136009,51.51612515]},"types":[{"label":"hall"}]},{"@id":"reed:80ceb5b0-c5fb-446a-9eaa-b817ba904141","type":"Feature","properties":{"title":"Grocers' Hall","country":"Great Britain","region":"London"},"geometry":{"type":"Point","coordinates":[-0.090208063,51.51450882]},"types":[{"label":"hall"}]},{"@id":"reed:22d26c95-b4c4-450b-a70b-07268115ab90","type":"Feature","properties":{"title":"Mercers’ Hall","country":"Great Britain","region":"London"},"geometry":null,"types":[{"label":"hall"}]},{"@id":"reed:e302bfe6-292f-495d-8a80-4e47eb19933c","type":"Feature","properties":{"title":"Merchant Taylors’ Hall ","country":"Great Britain","region":"London"},"geometry":{"type":"Point","coordinates":[-0.085022645,51.51402917]},"types":[{"label":"hall"}]},{"@id":"reed:ced25de2-9568-4d4d-ad9c-62f31a179a3d","type":"Feature","properties":{"title":"Porters' Hall","country":"Great Britain","region":"London"},"geometry":{"type":"Point","coordinates":[-0.101432141,51.51273957]},"types":[{"label":"hall"}]},{"@id":"reed:c9ca84b7-bffc-4362-91cf-3cb51f09d41a","type":"Feature","properties":{"title":"Tower Hill","country":"Great Britain","region":"London"},"geometry":{"type":"Point","coordinates":[-0.075952,51.509558]},"types":[{"label":"hill"}]},{"@id":"reed:fed166df-2002-4ad9-a588-8d4c757e7670 ","type":"Feature","properties":{"title":"Bethlehem Hospital","country":"Great Britain","region":"London"},"geometry":null,"types":[{"label":"hospital"}]},{"@id":"reed:663228eb-227b-46d5-a503-269c9f9a67cb","type":"Feature","properties":{"title":"Christ’s Hospital","country":"Great Britain","region":"London"},"geometry":{"type":"Point","coordinates":[-0.09964586,51.51629896]},"types":[{"label":"hospital"}]},{"@id":"reed:4246d2ee-46c0-44f0-98f0-cf80ae0b3ba4","type":"Feature","properties":{"title":"St Anthony’s Hospital","country":"Great Britain","region":"London"},"geometry":{"type":"Point","coordinates":[-0.085988,51.514243]},"types":[{"label":"hospital"}]},{"@id":"reed:f1846c71-3adf-4e65-8fc6-dee3619e666f","type":"Feature","properties":{"title":"St Bartholomew’s Hospital","country":"Great Britain","region":"London"},"geometry":{"type":"Point","coordinates":[-0.100067,51.517531]},"types":[{"label":"hospital"}]},{"@id":"reed:b92985db-1bfe-42f4-a735-bc113c3e57db","type":"Feature","properties":{"title":"St Katharine’s Hospital","country":"Great Britain","region":"London"},"geometry":{"type":"Point","coordinates":[-0.073834,51.508537]},"types":[{"label":"hospital"}]},{"@id":"reed:022405d0-4572-4f90-9679-e017612ce840","type":"Feature","properties":{"title":"St Mary within Cripplegate Hospital","country":"Great Britain","region":"London"},"geometry":null,"types":[{"label":"hospital"}]},{"@id":"reed:0f0060b0-b928-4739-ab16-676dd9486f63","type":"Feature","properties":{"title":"St Mary without Bishopsgate Hospital","country":"Great Britain","region":"London"},"geometry":{"type":"Point","coordinates":[-0.075,51.5166]},"types":[{"label":"hospital"}]},{"@id":"reed:38b5d01b-4e47-4d31-8ae5-e7385dbe7f6e","type":"Feature","properties":{"title":"St Thomas' Hospital","country":"Great Britain","region":"Southwark"},"geometry":{"type":"Point","coordinates":[-0.08808758,51.50514691]},"types":[{"label":"hospital"}]},{"@id":"reed:6ec14552-3e01-425a-9dd4-3545eec661a4","type":"Feature","properties":{"title":"Barnard’s Inn","country":"Great Britain","region":"London"},"geometry":{"type":"Point","coordinates":[-0.109547782,51.51708997]},"types":[{"label":"inn of court"}]},{"@id":"reed:cae29296-ecd6-4e89-a10d-a4750fb2486b","type":"Feature","properties":{"title":"Clement’s Inn","country":"Great Britain","region":"London"},"geometry":{"type":"Point","coordinates":[-0.115573772,51.51390408]},"types":[{"label":"inn of court"}]},{"@id":"reed:fd0f59f6-dd18-4287-85c8-5e350a7fce3c","type":"Feature","properties":{"title":"Clifford’s Inn","country":"Great Britain","region":"London"},"geometry":{"type":"Point","coordinates":[-0.1103152705,51.51460526]},"types":[{"label":"inn of court"}]},{"@id":"reed:2864e612-b153-4324-9d4b-ddd956ad796e","type":"Feature","properties":{"title":"Furnival’s Inn","country":"Great Britain","region":"London"},"geometry":{"type":"Point","coordinates":[-0.109896868,51.51824214]},"types":[{"label":"inn of court"}]},{"@id":"reed:ce67db0d-3924-4ad5-bb98-d35f7a2b1f88","type":"Feature","properties":{"title":"Gray’s Inn","country":"Great Britain","region":"London"},"geometry":{"type":"Point","coordinates":[-0.112383443,51.51883723]},"types":[{"label":"inn of court"}]},{"@id":"reed:9f543ac0-a6ec-4e1c-9fad-09b3e25d9767","type":"Feature","properties":{"title":"Inner Temple","country":"Great Britain","region":"London"},"geometry":{"type":"Point","coordinates":[-0.110569384,51.51286349]},"types":[{"label":"inn of court"}]},{"@id":"reed:c2b529c1-91d6-46cf-b659-85e3442c7b3c","type":"Feature","properties":{"title":"Lincoln’s Inn","country":"Great Britain","region":"London"},"geometry":{"type":"Point","coordinates":[-0.113912939,51.51696608]},"types":[{"label":"inn of court"}]},{"@id":"reed:61541137-cde8-4c9b-b7d6-f5439bcd0cf0","type":"Feature","properties":{"title":"Lyon’s Inn","country":"Great Britain","region":"London"},"geometry":{"type":"Point","coordinates":[-0.119,51.513]},"types":[{"label":"inn of court"}]},{"@id":"reed:8274862e-939f-4281-a750-5c2a27225dc6","type":"Feature","properties":{"title":"Middle Temple","country":"Great Britain","region":"London"},"geometry":{"type":"Point","coordinates":[-0.111474058,51.51244211]},"types":[{"label":"inn of court"}]},{"@id":"reed:bae38b98-bf52-4e8c-87a9-c40bb3eac9bc","type":"Feature","properties":{"title":"New Inn","country":"Great Britain","region":"London"},"geometry":{"type":"Point","coordinates":[-0.1156190222,51.51317164]},"types":[{"label":"inn of court"}]},{"@id":"reed:7e70f7a6-d77c-417b-9d75-6e1ff19d11e8","type":"Feature","properties":{"title":"Serjeant’s Inn","country":"Great Britain","region":"London"},"geometry":{"type":"Point","coordinates":[-0.1109493704,51.51438102]},"types":[{"label":"inn of court"}]},{"@id":"reed:a0cdc17c-36b3-4ef7-bb1d-6a49fd185b6c","type":"Feature","properties":{"title":"Staple Inn","country":"Great Britain","region":"London"},"geometry":{"type":"Point","coordinates":[-0.111208,51.517506]},"types":[{"label":"inn of court"}]},{"@id":"reed:9e63e2c5-fc98-42db-9dc6-38484da0b0cb","type":"Feature","properties":{"title":"Strand Inn","country":"Great Britain","region":"London"},"geometry":{"type":"Point","coordinates":[-0.120853,51.510853]},"types":[{"label":"inn of court"}]},{"@id":"reed:2e5126eb-4485-467b-a68e-e2271611a16e","type":"Feature","properties":{"title":"Thavie’s Inn","country":"Great Britain","region":"London"},"geometry":{"type":"Point","coordinates":[-0.1074563412,51.51703886]},"types":[{"label":"inn of court"}]},{"@id":"reed:75099947-bb54-4775-98a0-24efb284e7bc","type":"Feature","properties":{"title":"Paris Garden Manor House","country":"Great Britain","region":"London"},"geometry":{"type":"Point","coordinates":[-0.105278,51.506111]},"types":[{"label":"manor"}]},{"@id":"reed:d89cbd09-3e9c-44f8-ac60-58b7ef8ce372","type":"Feature","properties":{"title":"Cheapside Cross","country":"Great Britain","region":"London"},"geometry":null,"types":[{"label":"monument"}]},{"@id":"reed_4399d823-7213-438f-a680-5eada9ebd43a","type":"Feature","properties":{"title":"Standard (Cheapside)"},"geometry":null,"types":[{"label":"monument"}]},{"@id":"reed:675e895f-25df-4d79-a01a-2cb15e3d819c","type":"Feature","properties":{"title":"Westminster","country":"Great Britain","region":"Westminster"},"geometry":{"type":"Point","coordinates":[-0.125665348,51.50317383]},"types":[{"label":"neighbourhood"}]},{"@id":"reed:3df1eaea-ed54-41a7-9048-ca4b2528086a","type":"Feature","properties":{"title":"Charing Cross","country":"Great Britain","region":"London"},"geometry":{"type":"Point","coordinates":[-0.127918001,51.50732817]},"types":[{"label":"outdoor space"}]},{"@id":"reed:8093d2fd-829f-4210-aa77-f5be2f833948","type":"Feature","properties":{"title":"Clerkenwell Close","country":"Great Britain","region":"Middlesex"},"geometry":{"type":"Point","coordinates":[-0.105753984,51.5233179]},"types":[{"label":"outdoor space"}]},{"@id":"reed:a6a6b5c6-32de-41b4-8b6f-1e3a738249ef","type":"Feature","properties":{"title":"Clerkenwell Green","country":"Great Britain","region":"Middlesex"},"geometry":{"type":"Point","coordinates":[-0.105469232,51.52287164]},"types":[{"label":"outdoor space"}]},{"@id":"reed:da8e9e26-4cad-4c9b-8535-7109e513689a","type":"Feature","properties":{"title":"Covent Garden","country":"Great Britain","region":"Westminster"},"geometry":{"type":"Point","coordinates":[-0.1227589,51.511935]},"types":[{"label":"outdoor space"}]},{"@id":"reed:d1d0c2fe-e154-4464-93c1-1d97d0275e8f","type":"Feature","properties":{"title":"Finsbury Fields","country":"Great Britain","region":"London"},"geometry":{"type":"Point","coordinates":[-0.087871369,51.51907766]},"types":[{"label":"outdoor space"}]},{"@id":"reed:6bca3acf-8548-403d-bd60-324e8717eae4","type":"Feature","properties":{"title":"Lincoln’s Inn Fields","country":"Great Britain","region":"London"},"geometry":{"type":"Point","coordinates":[-0.116626335,51.51627459]},"types":[{"label":"outdoor space"}]},{"@id":"reed:8e84182a-87aa-425a-bf1c-afdb1667748c","type":"Feature","properties":{"title":"Newgate Market","country":"Great Britain","region":"London"},"geometry":{"type":"Point","coordinates":[-0.099937,51.515714]},"types":[{"label":"outdoor space"}]},{"@id":"reed:1c21edff-7200-4db6-a797-1f57fdb777a9","type":"Feature","properties":{"title":"Pye Corner","country":"Great Britain","region":"London"},"geometry":{"type":"Point","coordinates":[-0.10187,51.5171]},"types":[{"label":"outdoor space"}]},{"@id":"reed:79108551-5f3e-464a-906c-54d55226dbab","type":"Feature","properties":{"title":"Smithfield","country":"Great Britain","region":"London"},"geometry":{"type":"Point","coordinates":[-0.101188782,51.51832528]},"types":[{"label":"outdoor space"}]},{"@id":"reed:e0bfb4ba-85da-4ce9-88d2-c775a5150942","type":"Feature","properties":{"title":"St James Park","country":"Great Britain","region":"London"},"geometry":{"type":"Point","coordinates":[-0.13194,51.50167]},"types":[{"label":"outdoor space"}]},{"@id":"reed:4721c4bf-bcde-4677-baa1-b607c8a8e15a","type":"Feature","properties":{"title":"St Paul's Cross","country":"Great Britain","region":"London"},"geometry":{"type":"Point","coordinates":[-0.097761583,51.51396135]},"types":[{"label":"outdoor space"}]},{"@id":"reed:e76c726f-af01-4bdd-a761-62eb4465e9ab","type":"Feature","properties":{"title":"Temple Garden","country":"Great Britain","region":"London"},"geometry":{"type":"Point","coordinates":[0.110818,51.511694]},"types":[{"label":"outdoor space"}]},{"@id":"reed:ba20bd68-54fe-42fd-903a-a6e9dae0cc16","type":"Feature","properties":{"title":"Croydon Palace","country":"Great Britain","region":"Middlesex"},"geometry":{"type":"Point","coordinates":[-0.105426721,51.37227289]},"types":[{"label":"palace"}]},{"@id":"reed:ae9cc8ec-a834-482a-8042-1b46d4a1d924","type":"Feature","properties":{"title":"Denmark House","country":"Great Britain","region":"London"},"geometry":{"type":"Point","coordinates":[-0.1171260111,51.51102917]},"types":[{"label":"palace"}]},{"@id":"reed:c2b841ef-15cd-49df-ba73-e9f21daaad2a","type":"Feature","properties":{"title":"Fulham Palace","country":"Great Britain","region":"London"},"geometry":{"type":"Point","coordinates":[-0.216111,51.4706]},"types":[{"label":"palace"}]},{"@id":"reed:61d7d024-efaf-4b24-b32b-5b6da8f07d38","type":"Feature","properties":{"title":"Hampton Court","country":"Great Britain","region":"Surrey"},"geometry":{"type":"Point","coordinates":[-0.337834458,51.40359739]},"types":[{"label":"palace"}]},{"@id":"reed:337580ba-4b1f-4e9f-ae2f-2312d37b1f63","type":"Feature","properties":{"title":"Lambeth Palace","country":"Great Britain","region":"Surrey"},"geometry":{"type":"Point","coordinates":[-0.120073663,51.49551631]},"types":[{"label":"palace"}]},{"@id":"reed:51296726-a4fa-4565-93ac-1c8b99ea0809","type":"Feature","properties":{"title":"Richmond Palace","country":"Great Britain","region":"Surrey"},"geometry":{"type":"Point","coordinates":[-0.309674244,51.46071374]},"types":[{"label":"palace"}]},{"@id":"reed:ca4149fc-de25-49ff-ad27-779d2c658224","type":"Feature","properties":{"title":"Savoy Palace","country":"Great Britain","region":"Savoy"},"geometry":{"type":"Point","coordinates":[-0.120209987,51.510531]},"types":[{"label":"palace"}]},{"@id":"reed:d7fdeabd-35ba-48df-9085-3dd498101f79","type":"Feature","properties":{"title":"Somerset House","country":"Great Britain","region":"London"},"geometry":{"type":"Point","coordinates":[-0.117145868,51.51108282]},"types":[{"label":"palace"}]},{"@id":"reed:28d15925-c5fa-47c0-8f12-6a2e279e1e5b","type":"Feature","properties":{"title":"St James’ Palace","country":"Great Britain","region":"London"},"geometry":{"type":"Point","coordinates":[-0.137701384,51.50502989]},"types":[{"label":"palace"}]},{"@id":"reed:d17a72f2-f867-4255-a119-147b5d06666d","type":"Feature","properties":{"title":"Suffolk Place","country":"Great Britain","region":"Southwark"},"geometry":{"type":"Point","coordinates":[-0.093715242,51.50163447]},"types":[{"label":"palace"}]},{"@id":"reed:b03bd7ba-30a3-4974-ae35-960438d3f3af","type":"Feature","properties":{"title":"Whitehall Palace","country":"Great Britain","region":"Westminster"},"geometry":{"type":"Point","coordinates":[-0.125732426,51.50497294]},"types":[{"label":"palace"}]},{"@id":"reed:3f8f6204-48f8-4e1a-a0f3-7ebfda9806a3","type":"Feature","properties":{"title":"Clerkenwell","country":"Great Britain","region":"London"},"geometry":{"type":"Point","coordinates":[-0.103475,51.52649]},"types":[{"label":"parish"}]},{"@id":"reed:20d7c8e2-9889-45a0-bbe1-97a0c9e13a2e","type":"Feature","properties":{"title":"Shoreditch","country":"Great Britain","region":"London"},"geometry":{"type":"Point","coordinates":[-0.077599467,51.52311747]},"types":[{"label":"parish"}]},{"@id":"reed:9249c832-e230-4666-af1b-01eb57fda81a","type":"Feature","properties":{"title":"St Giles in the Fields"},"geometry":null,"types":[{"label":"parish"}]},{"@id":"reed:89880f00-9cbe-4a67-93b9-f0a80df7b1ad","type":"Feature","properties":{"title":"St Martin le Grand","country":"Great Britain","region":"London"},"geometry":{"type":"Point","coordinates":[-0.096944,51.5164]},"types":[{"label":"parish"}]},{"@id":"reed:3d38e8f4-ef38-47d7-b25e-f9bceb461084","type":"Feature","properties":{"title":"Stepney","country":"Great Britain","region":"London"},"geometry":{"type":"Point","coordinates":[-0.0462,51.5152]},"types":[{"label":"parish"}]},{"@id":"reed:27093bcf-59b2-42f8-af57-24ab19884233","type":"Feature","properties":{"title":"Doctors’ Commons","country":"Great Britain","region":"London"},"geometry":{"type":"Point","coordinates":[-0.09972017696,51.51211382]},"types":[{"label":"place of punishment"}]},{"@id":"reed:3a3fb9c8-b02c-4029-be62-465354c94f6b","type":"Feature","properties":{"title":"Gatehouse","country":"Great Britain","region":"Middlesex"},"geometry":{"type":"Point","coordinates":[-0.129,51.4992]},"types":[{"label":"place of punishment"}]},{"@id":"reed:881150c9-03ad-42bb-aeb0-61940afeb03f","type":"Feature","properties":{"title":"Poultry Compter","country":"Great Britain","region":"London"},"geometry":{"type":"Point","coordinates":[-0.0906,51.5137]},"types":[{"label":"place of punishment"}]},{"@id":"reed:5c16254a-7478-4afa-858f-66b0677f2995","type":"Feature","properties":{"title":"Tyburn","country":"Great Britain","region":"London"},"geometry":{"type":"Point","coordinates":[-0.164,51.512861]},"types":[{"label":"place of punishment"}]},{"@id":"reed:e695835b-0fd8-4d8f-8064-04d92219da77","type":"Feature","properties":{"title":"Wood Street Compter","country":"Great Britain","region":"London"},"geometry":{"type":"Point","coordinates":[-0.094167,51.5153]},"types":[{"label":"place of punishment"}]},{"@id":"reed:d18b9e1e-33a2-404a-a9ee-6e276e2d1097","type":"Feature","properties":{"title":"Blackfriars Playhouse","country":"Great Britain","region":"London"},"geometry":{"type":"Point","coordinates":[-0.103713,51.512114]},"types":[{"label":"playhouse"}]},{"@id":"reed:fd0f59f6-dd18-4287-85c8-5e350a7fce3c","type":"Feature","properties":{"title":"Cockpit","country":"Great Britain","region":"Westminster"},"geometry":{"type":"Point","coordinates":[-0.1272941459,51.50387293]},"types":[{"label":"playhouse"}]},{"@id":"reed:dbb0f32d-0410-4436-93eb-f7da9f80e2db","type":"Feature","properties":{"title":"Cockpit Playhouse (aka Phoenix)","country":"Great Britain","region":"Middlesex"},"geometry":{"type":"Point","coordinates":[-0.120549065,51.51425727]},"types":[{"label":"playhouse"}]},{"@id":"reed:cba124be-ec05-45cb-b64d-d92815a0e28b","type":"Feature","properties":{"title":"Curtain Playhouse","country":"Great Britain","region":"Middlesex"},"geometry":{"type":"Point","coordinates":[-0.080402493,51.52301642]},"types":[{"label":"playhouse"}]},{"@id":"reed:97734e8f-41bd-4246-bc50-78a4f5b7533d","type":"Feature","properties":{"title":"Fortune Playhouse","country":"Great Britain","region":"Middlesex"},"geometry":{"type":"Point","coordinates":[-0.094285079,51.52230373]},"types":[{"label":"playhouse"}]},{"@id":"reed:00540e8c-aea8-46ee-9975-32f7371b9c52","type":"Feature","properties":{"title":"Globe Playhouse","country":"Great Britain","region":"Surrey"},"geometry":{"type":"Point","coordinates":[-0.09439368,51.50685268]},"types":[{"label":"playhouse"}]},{"@id":"reed:a1bead2c-954f-46c4-a47b-94e443e84fe5","type":"Feature","properties":{"title":"Hope Playhouse","country":"Great Britain","region":"Southwark"},"geometry":{"type":"Point","coordinates":[-0.095712043,51.50776758]},"types":[{"label":"playhouse"}]},{"@id":"reed:0acae53f-441d-4cf2-9a43-fb2638715cdf","type":"Feature","properties":{"title":"Newington Butts Playhouse","country":"Great Britain","region":"Surrey"},"geometry":{"type":"Point","coordinates":[-0.102833412,51.49188654]},"types":[{"label":"playhouse"}]},{"@id":"reed:c282415d-4c99-4ad8-91fd-cfd1f593acf9","type":"Feature","properties":{"title":"Red Bull Playhouse","country":"Great Britain","region":"Middlesex"},"geometry":{"type":"Point","coordinates":[-0.103476525,51.524171]},"types":[{"label":"playhouse"}]},{"@id":"reed:31bf6ecb-0fe0-4775-8798-f1e58dcd5143","type":"Feature","properties":{"title":"Red Lion Playhouse","country":"Great Britain","region":"Southwark"},"geometry":{"type":"Point","coordinates":[-0.056327827,51.51791853]},"types":[{"label":"playhouse"}]},{"@id":"reed:646b7dd7-1a91-4975-93fd-5495d7afe938","type":"Feature","properties":{"title":"Rose Playhouse","country":"Great Britain","region":"Surrey"},"geometry":{"type":"Point","coordinates":[-0.095439559,51.50729223]},"types":[{"label":"playhouse"}]},{"@id":"reed:fb4d31b4-0c3b-46fe-a399-dc1dbab780ee","type":"Feature","properties":{"title":"Salisbury Court","country":"Great Britain","region":"London"},"geometry":{"type":"Point","coordinates":[-0.105916257,51.51287895]},"types":[{"label":"playhouse"}]},{"@id":"reed:946691c1-0185-4a0e-8619-04adf31e3316","type":"Feature","properties":{"title":"Swan Playhouse","country":"Great Britain","region":"Surrey"},"geometry":{"type":"Point","coordinates":[-0.102413963,51.50763417]},"types":[{"label":"playhouse"}]},{"@id":"reed:4f9a6e7d-6336-44dd-aaa2-3a1690324569","type":"Feature","properties":{"title":"Theatre Playhouse","country":"Great Britain","region":"Middlesex"},"geometry":{"type":"Point","coordinates":[-0.079824751,51.52456412]},"types":[{"label":"playhouse"}]},{"@id":"reed:f26e2afc-85c6-4e2f-ba65-5674efab6ebb","type":"Feature","properties":{"title":"Bridewell","country":"Great Britain","region":"London"},"geometry":{"type":"Point","coordinates":[-0.105758,51.511794]},"types":[{"label":"prison"}]},{"@id":"reed:3dec0c46-0742-44fc-b686-d4f0fcc455c0","type":"Feature","properties":{"title":"Clink","country":"Great Britain","region":"Southwark"},"geometry":{"type":"Point","coordinates":[-0.091931,51.507078]},"types":[{"label":"prison"}]},{"@id":"reed:68fa33e0-c309-4a7b-880a-1b8179d7d064","type":"Feature","properties":{"title":"Fleet Prison","country":"Great Britain","region":"London"},"geometry":{"type":"Point","coordinates":[-0.105,51.51611]},"types":[{"label":"prison"}]},{"@id":"reed:e2ac05df-bee4-4e40-801d-736aec8b29df","type":"Feature","properties":{"title":"King's Bench Prison","country":"Great Britain","region":"Southwark"},"geometry":{"type":"Point","coordinates":[-0.09192281717,51.50201598]},"types":[{"label":"prison"}]},{"@id":"reed:bb455697-ff45-43f6-a641-787ed76e20f5","type":"Feature","properties":{"title":"Marshalsea Prison","country":"Great Britain","region":"London"},"geometry":{"type":"Point","coordinates":[-0.090990317,51.50265914]},"types":[{"label":"prison"}]},{"@id":"reed:4902f006-890a-4908-92b0-a61bf36920f7","type":"Feature","properties":{"title":"Newgate Prison","country":"Great Britain","region":"London"},"geometry":{"type":"Point","coordinates":[-0.101573476,51.51613101]},"types":[{"label":"prison"}]},{"@id":"reed:8320799c-ea6c-4e2b-9bdd-74092b6a7246","type":"Feature","properties":{"title":"White Lyon Prison","country":"Great Britain","region":"London"},"geometry":{"type":"Point","coordinates":[-0.0921,51.5018]},"types":[{"label":"prison"}]},{"@id":"reed:fd74a65e-d28d-41de-9ff4-9a982b3f1fc5","type":"Feature","properties":{"title":"Ashburnham House","country":"Great Britain","region":"Middlesex"},"geometry":{"type":"Point","coordinates":[-0.128333,51.4986]},"types":[{"label":"religious house"}]},{"@id":"reed:70d94c28-e782-4c21-abdb-9bd9de6c5815","type":"Feature","properties":{"title":"Charterhouse","country":"Great Britain","region":"Middlesex"},"geometry":{"type":"Point","coordinates":[-0.099722,51.521389]},"types":[{"label":"religious house"}]},{"@id":"reed:47647b31-1731-4960-aa14-323f3e41889b","type":"Feature","properties":{"title":"Greyfriars","country":"Great Britain","region":"London"},"geometry":{"type":"Point","coordinates":[-0.0996,51.5162]},"types":[{"label":"religious house"}]},{"@id":"reed:5e68e20d-7642-4090-ab63-296d7dd9e1b5","type":"Feature","properties":{"title":"Holy Trinity Priory","country":"Great Britain","region":"London"},"geometry":{"type":"Point","coordinates":[-0.077881523,51.51351437]},"types":[{"label":"religious house"}]},{"@id":"reed:6429be13-22ea-457a-801c-fe3411412e40","type":"Feature","properties":{"title":"Holywell Priory","country":"Great Britain","region":"London"},"geometry":{"type":"Point","coordinates":[-0.07995,51.525066]},"types":[{"label":"religious house"}]},{"@id":"reed:bdd28384-6451-443e-862e-99ed40cd8542","type":"Feature","properties":{"title":"St Bartholomew’s Priory","country":"Great Britain","region":"London"},"geometry":{"type":"Point","coordinates":[-0.099606,51.518886]},"types":[{"label":"religious house"}]},{"@id":"reed:5f2a23cd-a88f-47aa-b8b6-62181c742086","type":"Feature","properties":{"title":"St Helen’s Priory","country":"Great Britain","region":"London"},"geometry":{"type":"Point","coordinates":[-0.0818,51.5148]},"types":[{"label":"religious house"}]},{"@id":"reed:e30e7b8a-552e-4231-b516-6149aeea3277","type":"Feature","properties":{"title":"St Mary Clerkenwell","country":"Great Britain","region":"Middlesex"},"geometry":{"type":"Point","coordinates":[-0.105684,51.5237]},"types":[{"label":"religious house"}]},{"@id":"reed:bb0f2dd7-27cd-4fc7-b87f-de9d3b0dcce5","type":"Feature","properties":{"title":"Whitefriars","country":"Great Britain","region":"London"},"geometry":{"type":"Point","coordinates":[-0.107833543,51.5135979]},"types":[{"label":"religious house"}]},{"@id":"reed:af939e40-5d4e-4e8f-8b86-5127fbf8f290","type":"Feature","properties":{"title":"Bermondsey House","country":"Great Britain","region":"Southwark"},"geometry":{"type":"Point","coordinates":[-0.080544099,51.49742009]},"types":[{"label":"residence"}]},{"@id":"reed:ec2c9148-c355-419e-b7c3-6b7b980f32af","type":"Feature","properties":{"title":"Blackwell","country":"Great Britain","region":"London"},"geometry":{"type":"Point","coordinates":[-0.09154286521,51.51547034]},"types":[{"label":"residence"}]},{"@id":"reed:f90239fa-7701-41e5-a391-a35bf2ea098d","type":"Feature","properties":{"title":"Bridge House","country":"Great Britain","region":"Southwark"},"geometry":{"type":"Point","coordinates":[-0.08519659,51.50621345]},"types":[{"label":"residence"}]},{"@id":"reed:9f7b8ace-87f4-4899-9a93-e1b94e975ec8","type":"Feature","properties":{"title":"Crosby Place","country":"Great Britain","region":"London"},"geometry":{"type":"Point","coordinates":[-0.082714869,51.51432258]},"types":[{"label":"residence"}]},{"@id":"reed:81f1f791-fabd-482a-b522-f874f54d582b","type":"Feature","properties":{"title":"Durham Place","country":"Great Britain","region":"Westminster"},"geometry":{"type":"Point","coordinates":[-0.122670095,51.508938]},"types":[{"label":"residence"}]},{"@id":"reed:eaaf5c01-d217-4f40-9b2a-38c54570a585","type":"Feature","properties":{"title":"Ely House","country":"Great Britain","region":"London"},"geometry":{"type":"Point","coordinates":[-0.1070139341,51.51852851]},"types":[{"label":"residence"}]},{"@id":"reed:e520d0a4-ef62-49ef-8253-9e191f8a0051","type":"Feature","properties":{"title":"Erber","country":"Great Britain","region":"London"},"geometry":{"type":"Point","coordinates":[-0.090776066,51.51092787]},"types":[{"label":"residence"}]},{"@id":"reed:64ed64a0-f955-4de3-9d35-209e00f08e28","type":"Feature","properties":{"title":"Finsbury Court","country":"Great Britain","region":"London"},"geometry":{"type":"Point","coordinates":[-0.106886,51.527373]},"types":[{"label":"residence"}]},{"@id":"reed:a089a1f2-a4e8-4d54-962f-02a6a34855fb","type":"Feature","properties":{"title":"Greenwich","country":"Great Britain","region":"Greenwich"},"geometry":{"type":"Point","coordinates":[-0.1019451176,51.51780228]},"types":[{"label":"residence"}]},{"@id":"reed:6e71f8f9-e7f1-4b26-94ea-9274c95f5c0f","type":"Feature","properties":{"title":"Hatton House","country":"Great Britain","region":"London"},"geometry":{"type":"Point","coordinates":[-0.108931,51.521868]},"types":[{"label":"residence"}]},{"@id":"reed:d9062b6a-f0fd-41c8-a25a-e7bdc136768c","type":"Feature","properties":{"title":"John Cholmley's house","country":"Great Britain","region":"Southwark"},"geometry":{"type":"Point","coordinates":[-0.095587873,51.50724721]},"types":[{"label":"residence"}]},{"@id":"reed:29de242d-cde8-4787-b9e2-df74e679d0af","type":"Feature","properties":{"title":"Montagu House","country":"Great Britain","region":"London"},"geometry":{"type":"Point","coordinates":[-0.08992417,51.50660962]},"types":[{"label":"residence"}]},{"@id":"reed:fb4d31b4-0c3b-46fe-a399-dc1dbab780ee","type":"Feature","properties":{"title":"Salisbury House","country":"Great Britain","region":"London"},"geometry":{"type":"Point","coordinates":[-0.1213706977,51.50995321]},"types":[{"label":"residence"}]},{"@id":"reed:7c89f009-2e8d-4353-a3c1-cfc5444218b0","type":"Feature","properties":{"title":"Southampton House","country":"Great Britain","region":"London"},"geometry":{"type":"Point","coordinates":[-0.1245560396,51.520046]},"types":[{"label":"residence"}]},{"@id":"reed:dbf2956a-1816-414a-ab2f-d8b886123981","type":"Feature","properties":{"title":"Syon House","country":"Great Britain","region":"Middlesex"},"geometry":{"type":"Point","coordinates":[-0.3125,51.4767]},"types":[{"label":"residence"}]},{"@id":"reed:fc7e6832-5986-4947-b38c-28de60bad54d","type":"Feature","properties":{"title":"Waverley Place","country":"Great Britain","region":"Southwark"},"geometry":{"type":"Point","coordinates":[-0.091798511,51.50493552]},"types":[{"label":"residence"}]},{"@id":"reed:85781cd0-3dca-4398-9627-1c6a9ab207ce","type":"Feature","properties":{"title":"Westminster Hall","country":"Great Britain","region":"Westminster"},"geometry":{"type":"Point","coordinates":[-0.125446958,51.49991939]},"types":[{"label":"residence"}]},{"@id":"reed:9e0a8e53-8a1e-487b-b15f-249f068c6642","type":"Feature","properties":{"title":"Winchester House","country":"Great Britain","region":"Surrey"},"geometry":{"type":"Point","coordinates":[-0.091220713,51.50687036]},"types":[{"label":"residence"}]},{"@id":"reed:794b159d-7bb4-427c-8163-1d5d3c8f6e7f","type":"Feature","properties":{"title":"York House","country":"Great Britain","region":"Westminster"},"geometry":{"type":"Point","coordinates":[-0.123131489,51.50846543]},"types":[{"label":"residence"}]},{"@id":"reed:b09c5a64-fe26-4714-86af-ba1147c52b9b","type":"Feature","properties":{"title":"Privy Stairs"},"geometry":null,"types":[{"label":"riverside feature"}]},{"@id":"reed:6ae61adb-d8b6-4b75-b11e-f70e5fb6e2fa","type":"Feature","properties":{"title":"St Paul’s School","country":"Great Britain","region":"London"},"geometry":{"type":"Point","coordinates":[-0.237504,51.487979]},"types":[{"label":"school"}]},{"@id":"reed:522642ca-04b0-4428-99c9-ae44cb768dce","type":"Feature","properties":{"title":"Westminster Grammar School","country":"Great Britain","region":"Westminster"},"geometry":{"type":"Point","coordinates":[-0.128013883,51.49804689]},"types":[{"label":"school"}]},{"@id":"reed:785b36f2-f262-4519-a03e-cc8265988ee5","type":"Feature","properties":{"title":"Whittington’s College","country":"Great Britain","region":"London"},"geometry":{"type":"Point","coordinates":[-0.092156,51.5112]},"types":[{"label":"school"}]},{"@id":"reed:465d3392-c68a-4f48-9529-fcce5ba406eb","type":"Feature","properties":{"title":"London","country":"Great Britain","region":"London"},"geometry":{"type":"Point","coordinates":[-0.091003117,51.51231744]},"types":[{"label":"settlement"}]},{"@id":"reed:e6f2c2a0-b651-4978-989a-8f4039e8b705","type":"Feature","properties":{"title":"Aldersgate Street","country":"Great Britain","region":"London"},"geometry":{"type":"Point","coordinates":[-0.097111351,51.51871824]},"types":[{"label":"street"}]},{"@id":"reed:92d69bfe-9a22-4af2-b858-9513220d8b1a","type":"Feature","properties":{"title":"Bermondsey Street","country":"Great Britain","region":"Southward"},"geometry":{"type":"Point","coordinates":[-0.081950794,51.5009401]},"types":[{"label":"street"}]},{"@id":"https://cwrc.ca/islandora/object/reed%3A3f043b31-b67d-4ead-bb07-9a223a6f8f59","type":"Feature","properties":{"title":"Bishopsgate Street","country":"Great Britain","region":"London"},"geometry":{"type":"Point","coordinates":[-0.07941286248,51.51887781]},"types":[{"label":"street"}]},{"@id":"https://cwrc.ca/islandora/object/reed%3A287c762b-c4f9-462e-ae3d-c0fe8dc64aea","type":"Feature","properties":{"title":"Bread Street","country":"Great Britain","region":"London"},"geometry":{"type":"Point","coordinates":[-0.094846,51.513311]},"types":[{"label":"street"}]},{"@id":"reed:7dc9f904-3191-4f81-a14d-a564699358df","type":"Feature","properties":{"title":"Broad Street","country":"Great Britain","region":"London"},"geometry":{"type":"Point","coordinates":[-0.083712,51.517392]},"types":[{"label":"street"}]},{"@id":"reed:625e10c0-039f-43ef-916e-5adc6e18cd04","type":"Feature","properties":{"title":"Bucklersbury","country":"Great Britain","region":"London"},"geometry":{"type":"Point","coordinates":[-0.09088460172,51.51331566]},"types":[{"label":"street"}]},{"@id":"reed:d0e69184-2785-4d47-87c5-4de4065b77ff","type":"Feature","properties":{"title":"Chancery Lane","country":"Great Britain","region":"London"},"geometry":{"type":"Point","coordinates":[-0.111922,51.51599]},"types":[{"label":"street"}]},{"@id":"reed:8d85f5e6-565f-4b2b-8c07-584eff831a75","type":"Feature","properties":{"title":"Cheapside","country":"Great Britain","region":"London"},"geometry":{"type":"Point","coordinates":[-0.09294564295,51.51386195]},"types":[{"label":"street"}]},{"@id":"reed:06ccab9d-b7b8-453e-bfc1-cffd3536e3fe","type":"Feature","properties":{"title":"Cornhill","country":"Great Britain","region":"London"},"geometry":{"type":"Point","coordinates":[-0.08540493431,51.51334542]},"types":[{"label":"street"}]},{"@id":"reed:f4a405a4-87b0-4adc-b374-c734fccb147e","type":"Feature","properties":{"title":"Drury Lane","country":"Great Britain","region":"London"},"geometry":{"type":"Point","coordinates":[-0.119571006,51.51349657]},"types":[{"label":"street"}]},{"@id":"reed:f172512e-916c-4113-8bf4-faa96a813721","type":"Feature","properties":{"title":"East Smithfield","country":"Great Britain","region":"London"},"geometry":{"type":"Point","coordinates":[-0.070921244,51.50826921]},"types":[{"label":"street"}]},{"@id":"reed:daed2e97-430d-40b2-8391-5c199612e7f1","type":"Feature","properties":{"title":"Fenchurch Street","country":"Great Britain","region":"London"},"geometry":{"type":"Point","coordinates":[-0.08310848315,51.51153656]},"types":[{"label":"street"}]},{"@id":"reed:fc980132-ab14-474c-b0c1-96f734041cf4","type":"Feature","properties":{"title":"Fish Street","country":"Great Britain","region":"London"},"geometry":{"type":"Point","coordinates":[-0.096614,51.512129]},"types":[{"label":"street"}]},{"@id":"reed:91ba01de-454a-4fd7-8463-a5795a81eacd","type":"Feature","properties":{"title":"Fleet Street","country":"Great Britain","region":"London"},"geometry":{"type":"Point","coordinates":[-0.109937369,51.51406121]},"types":[{"label":"street"}]},{"@id":"reed:9b055bf6-6189-434b-8dba-d039f6360db4","type":"Feature","properties":{"title":"Foster Lane","country":"Great Britain","region":"London"},"geometry":{"type":"Point","coordinates":[-0.0964,51.5155]},"types":[{"label":"street"}]},{"@id":"reed:8b5472c9-f94f-44ab-a674-fa19d09a2e10","type":"Feature","properties":{"title":"Golden Lane","country":"Great Britain","region":"London"},"geometry":{"type":"Point","coordinates":[-0.095437293,51.523659]},"types":[{"label":"street"}]},{"@id":"reed:79d432ff-7dbd-4731-82e5-381786407d97","type":"Feature","properties":{"title":"Gracechurch Street","country":"Great Britain","region":"London"},"geometry":{"type":"Point","coordinates":[-0.084963,51.512141]},"types":[{"label":"street"}]},{"@id":"reed:807728e8-1570-436e-861a-4db834327f7a","type":"Feature","properties":{"title":"Grub Street","country":"Great Britain","region":"London"},"geometry":{"type":"Point","coordinates":[-0.167047,51.454663]},"types":[{"label":"street"}]},{"@id":"reed:91354e3d-39d3-4a48-ae95-4656079986ad","type":"Feature","properties":{"title":"Holborn","country":"Great Britain","region":"London"},"geometry":{"type":"Point","coordinates":[-0.108522634,51.51784087]},"types":[{"label":"street"}]},{"@id":"reed:3e0fa867-6f09-477a-902b-de976bc0aee5","type":"Feature","properties":{"title":"Holywell Lane","country":"Great Britain","region":"Middlesex"},"geometry":{"type":"Point","coordinates":[-0.079846937,51.52371123]},"types":[{"label":"street"}]},{"@id":"reed:fd2879c2-1801-456e-94cb-7d367b18a78a","type":"Feature","properties":{"title":"Houndsditch","country":"Great Britain","region":"London"},"geometry":{"type":"Point","coordinates":[-0.078749663,51.51536026]},"types":[{"label":"street"}]},{"@id":"reed:9837eb0f-fe4b-44a5-bc66-25c04898b1b5","type":"Feature","properties":{"title":"Ivy Lane","country":"Great Britain","region":"London"},"geometry":{"type":"Point","coordinates":[-0.098494,51.514992]},"types":[{"label":"street"}]},{"@id":"reed:cecef238-1037-4dbc-97e6-e3aac961aa8c","type":"Feature","properties":{"title":"Kent Street","country":"Great Britain","region":"Southwark"},"geometry":{"type":"Point","coordinates":[-0.091110483,51.49986123]},"types":[{"label":"street"}]},{"@id":"reed:f5ae1fc6-6227-43ea-afa4-f931c777c39f","type":"Feature","properties":{"title":"Knightrider Street","country":"Great Britain","region":"London"},"geometry":{"type":"Point","coordinates":[-0.099548,51.512513]},"types":[{"label":"street"}]},{"@id":"reed:9d2c5265-0245-448d-be99-6c2d923a6e62","type":"Feature","properties":{"title":"Lambeth Marsh","country":"Great Britain","region":"Surrey"},"geometry":{"type":"Point","coordinates":[-0.114256025,51.50309406]},"types":[{"label":"street"}]},{"@id":"reed:d61d0f48-324a-49c0-9996-940f71ad9498","type":"Feature","properties":{"title":"Little Eastcheap","country":"Great Britain","region":"London"},"geometry":{"type":"Point","coordinates":[-0.086111,51.510833]},"types":[{"label":"street"}]},{"@id":"reed:c3983f36-d882-4164-b609-e5bcecb4158b","type":"Feature","properties":{"title":"Lombard Street","country":"Great Britain","region":"London"},"geometry":{"type":"Point","coordinates":[-0.0869,51.5125]},"types":[{"label":"street"}]},{"@id":"reed:b70e9b5a-2e48-4643-afc0-ed8f389551c0","type":"Feature","properties":{"title":"Long Lane ","country":"Great Britain","region":"London"},"geometry":{"type":"Point","coordinates":[-0.1000012545,51.51921942]},"types":[{"label":"street"}]},{"@id":"reed:2aa7d520-4cba-4d00-8fbf-84664fd7831c","type":"Feature","properties":{"title":"Love Lane","country":"Great Britain","region":"London"},"geometry":{"type":"Point","coordinates":[-0.093804,51.516444]},"types":[{"label":"street"}]},{"@id":"reed:97725d86-5a25-4ccf-92df-20f3b934d678","type":"Feature","properties":{"title":"Maid Lane","country":"Great Britain","region":"Southwark"},"geometry":{"type":"Point","coordinates":[-0.096531364,51.50730286]},"types":[{"label":"street"}]},{"@id":"reed:29f90565-f01e-4e97-8b57-86d3492e8aec","type":"Feature","properties":{"title":"Mark Lane","country":"Great Britain"},"geometry":{"type":"Point","coordinates":[-0.080556,51.5103]},"types":[{"label":"street"}]},{"@id":"reed:d2221560-795a-413f-9be7-8f8b1ee2feae","type":"Feature","properties":{"title":"Milk Street","country":"Great Britain","region":"London"},"geometry":{"type":"Point","coordinates":[-0.0936,51.515]},"types":[{"label":"street"}]},{"@id":"reed:21e6a82f-f095-4488-91d9-9d52edb9127f","type":"Feature","properties":{"title":"Newgate Street","country":"Great Britain","region":"London"},"geometry":{"type":"Point","coordinates":[-0.09996,51.51573]},"types":[{"label":"street"}]},{"@id":"reed:85fa8ea2-e19a-44a1-a15a-6bc7a73dcc8f","type":"Feature","properties":{"title":"Old Fish Street","country":"Great Britain","region":"London"},"geometry":{"type":"Point","coordinates":[-0.098199801,51.51241647]},"types":[{"label":"street"}]},{"@id":"reed:53a1b429-2b7f-45d7-845a-b56454cbe6a3","type":"Feature","properties":{"title":"Old Jewry","country":"Great Britain","region":"London"},"geometry":{"type":"Point","coordinates":[-0.0909,51.5143]},"types":[{"label":"street"}]},{"@id":"reed:28be13a2-9d1c-4109-b41d-bb1606ad0fb2","type":"Feature","properties":{"title":"Paternoster Row","country":"Great Britain","region":"London"},"geometry":{"type":"Point","coordinates":[-0.098056,51.5147]},"types":[{"label":"street"}]},{"@id":"reed:e51498de-485a-46da-ab8c-670f84e9fc9b","type":"Feature","properties":{"title":"Paul’s Alley","country":"Great Britain","region":"London"},"geometry":null,"types":[{"label":"street"}]},{"@id":"reed:3cfc7703-4be8-428e-bbf1-c3bb1703a1c6","type":"Feature","properties":{"title":"Pope Lane","country":"Great Britain","region":"London"},"geometry":{"type":"Point","coordinates":[-0.095983,51.516499]},"types":[{"label":"street"}]},{"@id":"reed:d52499d7-2c85-4322-835a-5add4da210fb","type":"Feature","properties":{"title":"Ram Alley","country":"Great Britain","region":"London"},"geometry":{"type":"Point","coordinates":[-0.1091786155,51.51367215]},"types":[{"label":"street"}]},{"@id":"reed:193a6c7e-bb6c-4c79-ae8b-9221d9e5c3b3","type":"Feature","properties":{"title":"Ratcliffe Highway","country":"Great Britain","region":"Middlesex"},"geometry":{"type":"Point","coordinates":[-0.061182671,51.50931802]},"types":[{"label":"street"}]},{"@id":"reed:5d94a14c-556e-4505-87db-49d95d3ea6d9","type":"Feature","properties":{"title":"Red Cross Street","country":"Great Britain","region":"London"},"geometry":{"type":"Point","coordinates":[-0.094270354,51.5198507]},"types":[{"label":"street"}]},{"@id":"reed:141144e0-4d64-4545-b05c-30438bbfc2ec","type":"Feature","properties":{"title":"Rose Alley","country":"Great Britain","region":"Southwark"},"geometry":{"type":"Point","coordinates":[-0.095280686,51.50783245]},"types":[{"label":"street"}]},{"@id":"reed:1a5ac839-1ea7-40a5-ac9e-ae5325ea8c79","type":"Feature","properties":{"title":"Sermon Lane","country":"Great Britain","region":"London"},"geometry":{"type":"Point","coordinates":[-0.098308,51.512561]},"types":[{"label":"street"}]},{"@id":"reed:825dd750-821f-46bb-833f-71ebe2381bf2","type":"Feature","properties":{"title":"Shaft Alley and Gate","country":"Great Britain","region":"London"},"geometry":{"type":"Point","coordinates":[-0.08165,51.513634]},"types":[{"label":"street"}]},{"@id":"reed:9830cd8b-8946-43e9-9ba0-8d232a000129","type":"Feature","properties":{"title":"Shambles, the","country":"Great Britain","region":"London"},"geometry":{"type":"Point","coordinates":[-0.099499,51.515582]},"types":[{"label":"street"}]},{"@id":"reed:19b38d43-b69b-463e-b7a4-2de54523c591","type":"Feature","properties":{"title":"Shoe Lane","country":"Great Britain","region":"London"},"geometry":{"type":"Point","coordinates":[-0.106246939,51.51518675]},"types":[{"label":"street"}]},{"@id":"reed:2911dd6e-1c6c-47be-a9b0-b72eba06db36","type":"Feature","properties":{"title":"Silver Street","country":"Great Britain","region":"London"},"geometry":{"type":"Point","coordinates":[-0.094695,51.516658]},"types":[{"label":"street"}]},{"@id":"reed:23650cb8-e0d7-4f53-a6d5-d75e23f84810","type":"Feature","properties":{"title":"Staining Lane","country":"Great Britain","region":"london"},"geometry":{"type":"Point","coordinates":[-0.080489,51.511578]},"types":[{"label":"street"}]},{"@id":"reed:e9def7ec-f5e9-4fdb-8896-e6563fd47e1c","type":"Feature","properties":{"title":"Strand","country":"Great Britain","region":"London"},"geometry":{"type":"Point","coordinates":[-0.122758604,51.50999979]},"types":[{"label":"street"}]},{"@id":"reed:74dba3de-83fe-4565-808b-5208612ecb56","type":"Feature","properties":{"title":"Tower Street","country":"Great Britain","region":"London"},"geometry":{"type":"Point","coordinates":[-0.126091945,51.51378954]},"types":[{"label":"street"}]},{"@id":"reed:807e3e1e-e96d-4bd8-97e7-55b7f0837797","type":"Feature","properties":{"title":"Trinity Lane","country":"Great Britain","region":"London"},"geometry":null,"types":[{"label":"street"}]},{"@id":"reed:c9bf4064-ee24-4042-a755-cb13131e8dbc","type":"Feature","properties":{"title":"Water Lane","country":"Great Britain","region":"London"},"geometry":{"type":"Point","coordinates":[-0.10703217,51.51307182]},"types":[{"label":"street"}]},{"@id":"reed:af9daf46-0657-4eb7-ab23-fc5a79815c01","type":"Feature","properties":{"title":"Watling Street","country":"Great Britain","region":"London"},"geometry":null,"types":[{"label":"street"}]},{"@id":"reed:f69655bb-45d6-4298-b4c3-f277776f16c4","type":"Feature","properties":{"title":"White Cross Street","country":"Great Britain","region":"Middlesex"},"geometry":{"type":"Point","coordinates":[-0.093659176,51.52407559]},"types":[{"label":"street"}]},{"@id":"reed:32f66369-d552-4419-a7ba-9503beb8cb9c","type":"Feature","properties":{"title":"Whitecross Street","country":"Great Britain","region":"London"},"geometry":{"type":"Point","coordinates":[-0.093659176,51.52407559]},"types":[{"label":"street"}]},{"@id":"reed:0d358e46-e5ca-441a-9d97-032e4f95be02","type":"Feature","properties":{"title":"Boar's Head Inn","country":"Great Britain","region":"Southwark"},"geometry":{"type":"Point","coordinates":[-0.096887951,51.50827563]},"types":[{"label":"victualing house"}]},{"@id":"reed:b227a71c-20a2-4214-977c-7a5405a866da","type":"Feature","properties":{"title":"Christopher Inn","country":"Great Britain","region":"Southwark"},"geometry":{"type":"Point","coordinates":[-0.091210557,51.5037399]},"types":[{"label":"victualing house"}]},{"@id":"reed:8980eada-7ddc-4bcf-840c-01a15a0be759","type":"Feature","properties":{"title":"Crane Inn ","country":"Great Britain","region":"Southwark"},"geometry":{"type":"Point","coordinates":[-0.093526085,51.5075477]},"types":[{"label":"victualing house"}]},{"@id":"reed:b44a7b48-3d48-470f-a65b-302af1de1192","type":"Feature","properties":{"title":"Dog Yard Inn","country":"Great Britain","region":"Southwark"},"geometry":{"type":"Point","coordinates":[-0.096448342,51.50779281]},"types":[{"label":"victualing house"}]},{"@id":"reed:d1ce119e-18a6-4501-acdc-80794c7c931e","type":"Feature","properties":{"title":"Dolphin","country":"Great Britain","region":"Southwark"},"geometry":{"type":"Point","coordinates":[-0.088015319,51.50645678]},"types":[{"label":"victualing house"}]},{"@id":"reed:0cb00724-cfcb-46a9-882d-3af644bfa435","type":"Feature","properties":{"title":"Elephant Inn","country":"Great Britain","region":"Southwark"},"geometry":{"type":"Point","coordinates":[-0.093823811,51.50766695]},"types":[{"label":"victualing house"}]},{"@id":"reed:323b0fde-1ba2-4437-8bed-417758d9486b","type":"Feature","properties":{"title":"Flower de Luce Inn","country":"Great Britain","region":"Southwark"},"geometry":{"type":"Point","coordinates":[-0.097868363,51.50820925]},"types":[{"label":"victualing house"}]},{"@id":"reed:49959049-e923-47aa-ae7e-158b4d749e27","type":"Feature","properties":{"title":"George Inn","country":"Great Britain","region":"Southwark"},"geometry":{"type":"Point","coordinates":[-0.089958734,51.50426007]},"types":[{"label":"victualing house"}]},{"@id":"reed:b37c081c-c6af-4307-9651-90884536a568","type":"Feature","properties":{"title":"Goat Inn","country":"Great Britain","region":"Southwark"},"geometry":{"type":"Point","coordinates":[-0.091161907,51.50426736]},"types":[{"label":"victualing house"}]},{"@id":"reed:ce468163-2e5a-4db9-b1ff-871fb4c6a4c0","type":"Feature","properties":{"title":"Green Dragon Inn","country":"Great Britain","region":"Southwark"},"geometry":{"type":"Point","coordinates":[-0.089925858,51.50547284]},"types":[{"label":"victualing house"}]},{"@id":"reed:709b3682-1da8-464f-a386-a03080241739","type":"Feature","properties":{"title":"Gun Inn","country":"Great Britain","region":"Southwark"},"geometry":{"type":"Point","coordinates":[-0.093097699,51.50740165]},"types":[{"label":"victualing house"}]},{"@id":"reed:a314de4c-a8ba-4fc8-a73f-aee42066adc8","type":"Feature","properties":{"title":"Hart Inn","country":"Great Britain","region":"Southwark"},"geometry":{"type":"Point","coordinates":[-0.093658988,51.50761058]},"types":[{"label":"victualing house"}]},{"@id":"reed:37aaad59-93e2-40fa-ae42-a271d559f56e","type":"Feature","properties":{"title":"Hartshorn Inn","country":"Great Britain","region":"Southwark"},"geometry":{"type":"Point","coordinates":[-0.095047731,51.50805309]},"types":[{"label":"victualing house"}]},{"@id":"reed:de8fed9b-44b5-40b7-a914-c5c487674ce9","type":"Feature","properties":{"title":"Horsehead Inn","country":"Great Britain","region":"Southwark"},"geometry":{"type":"Point","coordinates":[-0.091365517,51.50347432]},"types":[{"label":"victualing house"}]},{"@id":"reed:6f6f411c-8d3d-4c55-b89d-51d85e2af4aa","type":"Feature","properties":{"title":"Horseshoe Inn","country":"Great Britain","region":"Southwark"},"geometry":{"type":"Point","coordinates":[-0.09418948,51.50779972]},"types":[{"label":"victualing house"}]},{"@id":"reed:2b07f643-dbb0-4adf-ac30-bf8176b56569","type":"Feature","properties":{"title":"Katherine Wheel Inn","country":"Great Britain","region":"Southwark"},"geometry":{"type":"Point","coordinates":[-0.09234605,51.50250702]},"types":[{"label":"victualing house"}]},{"@id":"reed:b40fa969-ef50-40a6-92e5-b2fd8515ec45","type":"Feature","properties":{"title":"King's Head Inn","country":"Great Britain","region":"Southwark"},"geometry":{"type":"Point","coordinates":[-0.090057465,51.50462809]},"types":[{"label":"victualing house"}]},{"@id":"reed:622bfac7-7b31-42fb-bdf0-5b5d37318c0e","type":"Feature","properties":{"title":"Lion Inn","country":"Great Britain","region":"Southwark"},"geometry":{"type":"Point","coordinates":[-0.094523699,51.50791774]},"types":[{"label":"victualing house"}]},{"@id":"reed:b4e801b4-4eaf-426a-905f-18e7367ebf48","type":"Feature","properties":{"title":"Mermaid Inn","country":"Great Britain","region":"Southwark"},"geometry":{"type":"Point","coordinates":[-0.091987813,51.50274147]},"types":[{"label":"victualing house"}]},{"@id":"reed:9d7531c6-8bb9-4e4a-b6f9-2dc9c5a785a8","type":"Feature","properties":{"title":"Mitre Tavern","country":"Great Britain"},"geometry":{"type":"Point","coordinates":[-0.08876166276,51.51740217]},"types":[{"label":"victualing house"}]},{"@id":"reed:32484052-6fed-41e7-89f4-ce55466bec06","type":"Feature","properties":{"title":"Ram Inn","country":"Great Britain","region":"Southwark"},"geometry":{"type":"Point","coordinates":[-0.094737955,51.5079698]},"types":[{"label":"victualing house"}]},{"@id":"reed:76d2fda6-ed99-4eb8-83f3-e7fec14534e3","type":"Feature","properties":{"title":"Red Lion Inn","country":"Great Britain","region":"Southwark"},"geometry":{"type":"Point","coordinates":[-0.090634563,51.50485874]},"types":[{"label":"victualing house"}]},{"@id":"reed:dbffbab5-556a-4cf4-9c30-01567b5cd875","type":"Feature","properties":{"title":"Rose Inn","country":"Great Britain","region":"Southwark"},"geometry":{"type":"Point","coordinates":[-0.095188005,51.50808702]},"types":[{"label":"victualing house"}]},{"@id":"reed:ae50e580-6752-4f17-a3ff-2daf1c8935bb","type":"Feature","properties":{"title":"Saracen's Head Inn","country":"Great Britain","region":"Southwark"},"geometry":{"type":"Point","coordinates":[-0.090299679,51.50565872]},"types":[{"label":"victualing house"}]},{"@id":"reed:1066708c-6949-47b4-88be-116e12b394b6","type":"Feature","properties":{"title":"Ship Inn","country":"Great Britain","region":"Southwark"},"geometry":{"type":"Point","coordinates":[-0.08865613,51.50574118]},"types":[{"label":"victualing house"}]},{"@id":"reed:e952e540-6f23-4c9c-a7fb-c85cab0f0d04","type":"Feature","properties":{"title":"Spur Inn","country":"Great Britain","region":"Southwark"},"geometry":{"type":"Point","coordinates":[-0.091260593,51.50363644]},"types":[{"label":"victualing house"}]},{"@id":"reed:ed8e3d7a-bbe1-4f74-b950-095802f21ca9","type":"Feature","properties":{"title":"St Dunstan's Tavern"},"geometry":null,"types":[{"label":"victualing house"}]},{"@id":"reed:26ba1ba3-97ee-4b55-a542-1227aad6fbd7","type":"Feature","properties":{"title":"Swan Inn","country":"Great Britain","region":"Southwark"},"geometry":{"type":"Point","coordinates":[-0.093289136,51.50746632]},"types":[{"label":"victualing house"}]},{"@id":"reed:c3ad586e-94da-4b1e-81ae-2fbf2c79a228","type":"Feature","properties":{"title":"Tabard/Talbot Inn","country":"Great Britain","region":"Southwark"},"geometry":{"type":"Point","coordinates":[-0.09057539,51.50429532]},"types":[{"label":"victualing house"}]},{"@id":"reed:8bf08959-3bdd-4122-9e5f-d7c119e79cea","type":"Feature","properties":{"title":"Three Crane Inn","country":"Great Britain","region":"Southwark"},"geometry":{"type":"Point","coordinates":[-0.090110171,51.50393652]},"types":[{"label":"victualing house"}]},{"@id":"reed:64d35082-81a5-470f-ac9b-dc3eb118a939","type":"Feature","properties":{"title":"Three Crowns Inn","country":"Great Britain","region":"Southwark"},"geometry":{"type":"Point","coordinates":[-0.090316778,51.50517007]},"types":[{"label":"victualing house"}]},{"@id":"reed:0598a094-1a8b-4297-8f3e-f5d746b4093f","type":"Feature","properties":{"title":"Three Tuns Inn","country":"Great Britain","region":"Southwark"},"geometry":{"type":"Point","coordinates":[-0.094892142,51.50801826]},"types":[{"label":"victualing house"}]},{"@id":"reed:f61c3654-9164-4d38-9f68-01607e2e8d00","type":"Feature","properties":{"title":"Vine Inn","country":"Great Britain","region":"Southwark"},"geometry":{"type":"Point","coordinates":[-0.093943748,51.50701985]},"types":[{"label":"victualing house"}]},{"@id":"reed:3b269baa-e737-4a2e-936f-57e8cc661c29","type":"Feature","properties":{"title":"Walnut Tree Inn","country":"Great Britain","region":"Southwark"},"geometry":{"type":"Point","coordinates":[-0.087227759,51.50557625]},"types":[{"label":"victualing house"}]},{"@id":"reed:6be13218-065c-4699-a723-1b989e86dcaa","type":"Feature","properties":{"title":"White Hart Inn","country":"Great Britain","region":"Southwark"},"geometry":{"type":"Point","coordinates":[-0.089876733,51.50475725]},"types":[{"label":"victualing house"}]},{"@id":"reed:f2cf8429-807f-4872-b9fc-784342a9c176","type":"Feature","properties":{"title":"White Horse","country":"Great Britain","region":"Southwark"},"geometry":{"type":"Point","coordinates":[-0.08779296,51.50633786]},"types":[{"label":"victualing house"}]},{"@id":"reed:70775e92-2042-4edf-9b5f-d63555c14bf2","type":"Feature","properties":{"title":"Antelope Inn","country":"Great Britain","region":"Southwark"},"geometry":{"type":"Point","coordinates":[-0.09319602,51.50743163]},"types":[{"label":"victualling house"}]},{"@id":"reed:37ffb0c9-f2f5-4678-857a-223d7adeb778","type":"Feature","properties":{"title":"Barge Inn","country":"Great Britain","region":"Southwark"},"geometry":{"type":"Point","coordinates":[-0.095462578,51.50814992]},"types":[{"label":"victualling house"}]},{"@id":"reed:13ca46bc-a887-44ed-a526-f0ee407f42e9","type":"Feature","properties":{"title":"Bear Inn","country":"Great Britain","region":"Southwark"},"geometry":{"type":"Point","coordinates":[-0.087824959,51.50661278]},"types":[{"label":"victualling house"}]},{"@id":"reed:d96b0dd5-5286-4aa3-91de-39d226c12b6b","type":"Feature","properties":{"title":"Bell and Cock Inn","country":"Great Britain","region":"Southwark"},"geometry":{"type":"Point","coordinates":[-0.095670457,51.50819665]},"types":[{"label":"victualling house"}]},{"@id":"reed:5e031918-b2e2-4271-8783-aeb0d76375b7","type":"Feature","properties":{"title":"Bell Inn","country":"Great Britain","region":"Southwark"},"geometry":{"type":"Point","coordinates":[-0.092147323,51.50388972]},"types":[{"label":"victualling house"}]},{"@id":"reed:71463262-a91d-4f4b-bf33-54266e70c199","type":"Feature","properties":{"title":"Bell Inn","country":"Great Britain","region":"London"},"geometry":{"type":"Point","coordinates":[-0.084872153,51.51257817]},"types":[{"label":"victualling house"}]},{"@id":"reed:eb79a4d8-ca68-4fde-8f90-ce7a4d629ac8","type":"Feature","properties":{"title":"Bell Inn","country":"Great Britain","region":"Southwark"},"geometry":{"type":"Point","coordinates":[-0.091495097,51.50712618]},"types":[{"label":"victualling house"}]},{"@id":"reed:fd40b732-472d-472d-813d-f2780df76727","type":"Feature","properties":{"title":"Bell Savage Inn","country":"Great Britain","region":"London"},"geometry":{"type":"Point","coordinates":[-0.103615287,51.51460834]},"types":[{"label":"victualling house"}]},{"@id":"reed:fc618ce2-b9ed-48f3-9317-465d1c6db684","type":"Feature","properties":{"title":"Boar's Head Inn","country":"Great Britain","region":"London"},"geometry":{"type":"Point","coordinates":[-0.07404721,51.5147729]},"types":[{"label":"victualling house"}]},{"@id":"reed:df52f78b-5738-49d2-a4ce-c7320655e07b","type":"Feature","properties":{"title":"Bull Inn","country":"Great Britain","region":"London"},"geometry":{"type":"Point","coordinates":[-0.083294756,51.51566589]},"types":[{"label":"victualling house"}]},{"@id":"reed:cc546684-a5c2-4fcb-ac33-6b0483c2999a","type":"Feature","properties":{"title":"Cardinal's Hat","country":"Great Britain","region":"Southwark"},"geometry":{"type":"Point","coordinates":[-0.097465846,51.50823251]},"types":[{"label":"victualling house"}]},{"@id":"reed:36a37713-c7a2-40cf-a4ca-2043854f4e91","type":"Feature","properties":{"title":"Castle Inn","country":"Great Britain","region":"Southwark"},"geometry":{"type":"Point","coordinates":[-0.09290443,51.50730486]},"types":[{"label":"victualling house"}]},{"@id":"reed:93b677bd-744f-49fe-bc80-4b7360093bc6","type":"Feature","properties":{"title":"Cross Keys Inn","country":"Great Britain","region":"London"},"geometry":{"type":"Point","coordinates":[-0.085016089,51.51234671]},"types":[{"label":"victualling house"}]},{"@id":"reed:d99db21c-10f3-44fa-88e0-042b62de0f14","type":"Feature","properties":{"title":"Falcon on the Hoop, the","country":"Great Britain","region":"London"},"geometry":{"type":"Point","coordinates":[-0.060737,51.519886]},"types":[{"label":"victualling house"}]},{"@id":"reed:c5cae1b8-56f0-4baf-a2cc-64afd82056fe","type":"Feature","properties":{"title":"Horn Tavern","country":"Great Britain","region":"Middlesex"},"geometry":{"type":"Point","coordinates":[0.1083069168,51.5144015]},"types":[{"label":"victualling house"}]},{"@id":"reed:c0f20329-5034-482a-9423-eb1cd17abe16","type":"Feature","properties":{"title":"King’s Head Tavern","country":"Great Britain","region":"London"},"geometry":{"type":"Point","coordinates":[-0.090057465,51.50462809]},"types":[{"label":"victualling house"}]},{"@id":"reed:70e3bae2-4cd2-42b8-afad-9f2821d8e62a","type":"Feature","properties":{"title":"Queen's Head Tavern","country":"Great Britain","region":"Southwark"},"geometry":{"type":"Point","coordinates":[-0.091035435,51.50392539]},"types":[{"label":"victualling house"}]},{"@id":"reed:fd7a37e2-9afd-442b-8574-bfa6b4c6913d","type":"Feature","properties":{"title":"Woolsack","country":"Great Britain","region":"London"},"geometry":{"type":"Point","coordinates":[-0.097106,51.519151]},"types":[{"label":"victualling house"}]},{"@id":"reed:71fe2822-791d-4daf-89dc-a9e69b3afa3d","type":"Feature","properties":{"title":"London Wall","country":"Great Britain","region":"London"},"geometry":{"type":"Point","coordinates":[-0.096944,51.5175]},"types":[{"label":"wall"}]},{"@id":"reed:1dca3490-50ae-451e-8273-62e4e1214208","type":"Feature","properties":{"title":"Aldersgate Ward","country":"Great Britain"},"geometry":null,"types":[{"label":"ward"}]},{"@id":"reed:a4392daf-47fe-4cbf-b98d-719bfc68a7d0","type":"Feature","properties":{"title":"Aldgate Ward","country":"Great Britain"},"geometry":null,"types":[{"label":"ward"}]},{"@id":"reed:cb4c4caa-4df1-4853-ac17-8a252c246124","type":"Feature","properties":{"title":"Bassinghall Ward","country":"Great Britain"},"geometry":null,"types":[{"label":"ward"}]},{"@id":"reed:8dda102b-f4a5-4521-b7ee-91062f96b2a8 ","type":"Feature","properties":{"title":"Billingsgate Ward","country":"Great Britain","region":"London"},"geometry":{"type":"Point","coordinates":[-0.0837,51.5095]},"types":[{"label":"ward"}]},{"@id":"reed:60852d82-3975-44b9-988d-6927243d91a7","type":"Feature","properties":{"title":"Bishopsgate Ward","country":"Great Britain"},"geometry":null,"types":[{"label":"ward"}]},{"@id":"reed:13240f0d-7320-458f-8920-bd675ffaae9d","type":"Feature","properties":{"title":"Bread Street Ward","country":"Great Britain"},"geometry":null,"types":[{"label":"ward"}]},{"@id":"reed:236d372f-b375-4d3a-8950-bdefef415edb","type":"Feature","properties":{"title":"Bridge Within Ward","country":"Great Britain","region":"London"},"geometry":{"type":"Point","coordinates":[-0.085,51.511]},"types":[{"label":"ward"}]},{"@id":"reed:a602b6c1-245d-4abc-9bd9-66cd47c44298","type":"Feature","properties":{"title":"Broad Street Ward","country":"Great Britain"},"geometry":null,"types":[{"label":"ward"}]},